bathrooms,bedrooms,city,finishedSqFt,id,image,latitude,longitude,lotSizeSqFt,numFloors,numRooms,parkingType,price,school,state,street,useCode,yearBuilt,zipcode,zpid
2.5,3,SAN DIEGO,1478,1,https://photos.zillowstatic.com/p_d/ISmyocsmsyxfgh1000000000.jpg,32.962252,-117.183473,155558,,,,755293,Canyon Crest Academy,CA,6199 Verda Ln,Townhouse,2006,92130,66111807
3.0,3,SAN DIEGO,1563,2,https://photos.zillowstatic.com/p_d/ISq5p4pjs27w680000000000.jpg,32.960973,-117.184116,135374,2,7,Garage - Attached,805692,Canyon Crest Academy,CA,6139 Verda Ln,Townhouse,2006,92130,66111861
3.0,3,San Diego,1563,3,https://photos.zillowstatic.com/p_d/IS6yxeuvyguooz0000000000.jpg,32.961402,-117.185307,157872,2,7,Garage - Attached,807993,Canyon Crest Academy,CA,6126 Mystra Pt,SingleFamily,2005,92130,66111937
2.5,3,San Diego,1476,4,https://photos.zillowstatic.com/p_d/ISyrbbx3wzl24s1000000000.jpg,32.962518,-117.184897,150836,,,"Garage - Attached, Off-street",746113,Canyon Crest Academy,CA,13011 Carita Cv,Townhouse,2006,92130,66111769
3.0,4,San Diego,2656,5,https://photos.zillowstatic.com/p_d/ISyz50fky6xzhr1000000000.jpg,32.9688,-117.1782,,,,,1225114,Canyon Crest Academy,CA,13574 Bolero Way,SingleFamily,2017,92130,247631235
,,San Diego,,6,https://photos.zillowstatic.com/p_d/ISe4k2jif1bxgs0000000000.jpg,32.969499,-117.1912,,,,,,Canyon Crest Academy,CA,6198 Sagebrush Bend Way,SingleFamily,,92130,248981029
4.5,4,San Diego,2824,7,https://photos.zillowstatic.com/p_d/ISadsnuw7nk3fl1000000000.jpg,32.9692,-117.1782,,,,,1233825,Canyon Crest Academy,CA,13550 Bolero Way,SingleFamily,2017,92130,249829384
,,San Diego,,8,,32.970937,-117.188456,,,,,,Canyon Crest Academy,CA,6226 Sagebrush Bend Way,SingleFamily,,92130,250192759
2.5,3,SAN DIEGO,1478,9,https://photos.zillowstatic.com/p_d/ISmyocsmsyxfgh1000000000.jpg,32.962252,-117.183473,155558,,,,755293,Torrey Pines High School,CA,6199 Verda Ln,Townhouse,2006,92130,66111807
3.0,3,SAN DIEGO,1563,10,https://photos.zillowstatic.com/p_d/ISq5p4pjs27w680000000000.jpg,32.960973,-117.184116,135374,2,7,Garage - Attached,805692,Torrey Pines High School,CA,6139 Verda Ln,Townhouse,2006,92130,66111861
3.0,3,San Diego,1563,11,https://photos.zillowstatic.com/p_d/IS6yxeuvyguooz0000000000.jpg,32.961402,-117.185307,157872,2,7,Garage - Attached,807993,Torrey Pines High School,CA,6126 Mystra Pt,SingleFamily,2005,92130,66111937
2.5,3,San Diego,1476,12,https://photos.zillowstatic.com/p_d/ISyrbbx3wzl24s1000000000.jpg,32.962518,-117.184897,150836,,,"Garage - Attached, Off-street",746113,Torrey Pines High School,CA,13011 Carita Cv,Townhouse,2006,92130,66111769
3.0,4,San Diego,2656,13,https://photos.zillowstatic.com/p_d/ISyz50fky6xzhr1000000000.jpg,32.9688,-117.1782,,,,,1225114,Torrey Pines High School,CA,13574 Bolero Way,SingleFamily,2017,92130,247631235
,,San Diego,,14,https://photos.zillowstatic.com/p_d/ISe4k2jif1bxgs0000000000.jpg,32.969499,-117.1912,,,,,,Torrey Pines High School,CA,6198 Sagebrush Bend Way,SingleFamily,,92130,248981029
4.5,4,San Diego,2824,15,https://photos.zillowstatic.com/p_d/ISadsnuw7nk3fl1000000000.jpg,32.9692,-117.1782,,,,,1233825,Torrey Pines High School,CA,13550 Bolero Way,SingleFamily,2017,92130,249829384
,,San Diego,,16,,32.970937,-117.188456,,,,,,Torrey Pines High School,CA,6226 Sagebrush Bend Way,SingleFamily,,92130,250192759
2.5,3,SAN DIEGO,1882,17,https://photos.zillowstatic.com/p_d/ISu8aue8c1zgkf0000000000.jpg,32.945026,-117.1124,9600,,,Garage - Attached,714254,Westview High School,CA,9645 Paseo Montril,SingleFamily,1974,92129,16805410
3.0,3,SAN DIEGO,1882,18,https://photos.zillowstatic.com/p_d/ISq5lt17h3se0a0000000000.jpg,32.945377,-117.111474,10890,2,6,"Garage - Attached, Off-street",732983,Westview High School,CA,9695 Paseo Montril,SingleFamily,1974,92129,16805415
3.0,4,SAN DIEGO,2304,19,https://photos.zillowstatic.com/p_d/IS1znwkqc5rto31000000000.jpg,32.948264,-117.110634,7501,2,11,"Garage - Attached, Off-street",819625,Westview High School,CA,12719 Mengibar Ave,SingleFamily,1977,92129,16805542
3.0,3,SAN DIEGO,2042,20,https://photos.zillowstatic.com/p_d/ISmepb41cr55yr0000000000.jpg,32.945853,-117.1153,6674,2,,,773338,Westview High School,CA,12546 Cabezon Pl,SingleFamily,1978,92129,16805611
2.5,4,SAN DIEGO,2049,21,,32.944398,-117.114404,7501,,,,781840,Westview High School,CA,12436 Via Cabezon,SingleFamily,1975,92129,16805667
3.0,4,SAN DIEGO,2486,22,https://photos.zillowstatic.com/p_d/IS66klwh67hgq40000000000.jpg,32.949696,-117.114936,10890,2,10,"Garage - Attached, Off-street",851767,Westview High School,CA,9830 La Tortola Ct,SingleFamily,1984,92129,16807904
3.0,4,SAN DIEGO,2292,23,https://photos.zillowstatic.com/p_d/IS2fc6xa9bzpko1000000000.jpg,32.947245,-117.115788,7501,2,9,Garage - Attached,853865,Westview High School,CA,12626 La Tortola,SingleFamily,1983,92129,16807936
2.0,3,SAN DIEGO,1571,24,https://photos.zillowstatic.com/p_d/IS6eummt9fudp71000000000.jpg,32.948544,-117.115055,10890,,,,741942,Westview High School,CA,9830 La Tortola Pl,SingleFamily,1983,92129,16807956
3.0,4,SAN DIEGO,2190,25,https://photos.zillowstatic.com/p_d/ISmi4iihql64zl0000000000.jpg,32.942133,-117.116791,7501,2,7,,839688,Westview High School,CA,12257 Branicole Ln,SingleFamily,1990,92129,16809506
3.0,4,SAN DIEGO,2042,26,https://photos.zillowstatic.com/p_d/ISq1mz3k70z8xa0000000000.jpg,32.939754,-117.115913,7501,2,,Garage - Attached,801167,Westview High School,CA,12189 Branicole Ln,SingleFamily,1990,92129,16809522
3.0,4,SAN DIEGO,2241,27,https://photos.zillowstatic.com/p_d/ISqd7wshh4dy6e1000000000.jpg,32.937557,-117.120886,7501,2,,,871711,Westview High School,CA,11894 Mendiola Pt,SingleFamily,1992,92129,16809587
3.0,5,SAN DIEGO,2740,28,https://photos.zillowstatic.com/p_d/IS2f4gnvrsvgun1000000000.jpg,32.936587,-117.121931,7501,2,12,"Garage - Attached, On-street",914785,Westview High School,CA,11874 Meajean Pl,SingleFamily,1995,92129,16809605
3.0,5,SAN DIEGO,2740,29,https://photos.zillowstatic.com/p_d/ISt08bgol37mch1000000000.jpg,32.935784,-117.121657,4497,2,,Garage - Attached,914742,Westview High School,CA,11812 Meajean Pl,SingleFamily,1994,92129,16809611
2.5,4,SAN DIEGO,2356,30,https://photos.zillowstatic.com/p_d/IS2ni4eek7ktoj0000000000.jpg,32.939732,-117.121431,7501,2,,,868915,Westview High School,CA,9406 Chabola Rd,SingleFamily,1991,92129,16810232
3.0,4,SAN DIEGO,2356,31,https://photos.zillowstatic.com/p_d/ISe0xlv105od4s0000000000.jpg,32.941781,-117.119207,7501,2,9,Garage - Attached,862105,Westview High School,CA,9514 Hito Ct,SingleFamily,1993,92129,16810257
3.0,5,SAN DIEGO,2740,32,https://photos.zillowstatic.com/p_d/ISewdkuznds5171000000000.jpg,32.94166,-117.118475,7501,2,,"Garage - Attached, On-street",917266,Westview High School,CA,9535 Hito Ct,SingleFamily,1994,92129,16810267
2.5,4,SAN DIEGO,2356,33,https://photos.zillowstatic.com/p_d/ISado0q61blv1o1000000000.jpg,32.941015,-117.119391,10890,,,,860969,Westview High School,CA,9496 Hito Ct,SingleFamily,1991,92129,16810270
3.0,4,SAN DIEGO,2381,34,https://photos.zillowstatic.com/p_d/IS5avc44kiomj20000000000.jpg,32.94079,-117.121075,4225,,,Garage - Attached,858061,Westview High School,CA,9436 Hito Ct,SingleFamily,1991,92129,16810280
3.0,4,SAN DIEGO,2356,35,https://photos.zillowstatic.com/p_d/ISmaukf62t1n330000000000.jpg,32.939847,-117.121172,4308,2,,,862398,Westview High School,CA,9416 Chabola Rd,SingleFamily,1991,92129,16810304
3.0,4,SAN DIEGO,3046,36,,33.012976,-117.126298,4923,,,,1025969,Del Norte High School,CA,15914 Bass Ln,SingleFamily,2016,92127,120287373
2.5,3,San Diego,1689,37,https://photos.zillowstatic.com/p_d/ISi3iz78vpni7c0000000000.jpg,33.017961,-117.128225,15459,2,,,698704,Del Norte High School,CA,16607 Gill Loop,Townhouse,2015,92127,123185301
6.0,5,San Diego,4883,38,https://photos.zillowstatic.com/p_d/ISybrgzn1bunbo0000000000.jpg,33.009856,-117.128054,21780,2,14,Garage - Attached,1947263,Del Norte High School,CA,16473 Edgehill Rd,SingleFamily,2015,92127,120288059
5.5,5,San Diego,5135,39,https://photos.zillowstatic.com/p_d/ISek8c7gmvskej0000000000.jpg,33.011742,-117.130742,10140,,,Garage - Attached,1826160,Del Norte High School,CA,16474 Newcomb St,SingleFamily,2016,92127,120287945
5.5,5,San Diego,4775,40,https://photos.zillowstatic.com/p_d/ISme5crnml0oyi1000000000.jpg,33.007728,-117.131308,7501,2,,,1801520,Del Norte High School,CA,15895 Wadsworth Pl,SingleFamily,2016,92127,120287616
6.0,5,San Diego,5391,41,https://photos.zillowstatic.com/p_d/IS2fwp99evqmpx0000000000.jpg,33.013424,-117.129541,10890,2,20,"Garage - Attached, On-street",2176093,Del Norte High School,CA,16542 Newcomb St,SingleFamily,2015,92127,120288699
3.0,4,SAN DIEGO,2771,42,https://photos.zillowstatic.com/p_d/ISeo3vlxo6h2fu0000000000.jpg,33.013902,-117.132693,7501,2,9,Garage - Attached,984996,Del Norte High School,CA,15561 Tanner Ridge Rd,SingleFamily,2013,92127,119855432
4.5,4,SAN DIEGO,3423,43,https://photos.zillowstatic.com/p_d/ISqxmt4kdvenxd1000000000.jpg,33.009479,-117.136126,6756,2,,,1169635,Del Norte High School,CA,15381 Tanner Ridge Cir,SingleFamily,2015,92127,119907046
6.0,5,SAN DIEGO,3799,44,https://photos.zillowstatic.com/p_d/ISmmj0q43u2qdo1000000000.jpg,33.009576,-117.135934,7501,2,15,Garage - Attached,1417501,Del Norte High School,CA,15375 Tanner Ridge Cir,SingleFamily,2015,92127,119907381
3.0,4,SAN DIEGO,2589,45,https://photos.zillowstatic.com/p_d/ISa1repl5w2ygl1000000000.jpg,33.017995,-117.131092,7501,2,10,"Garage - Attached, On-street",1006033,Del Norte High School,CA,15941 Babcock St,SingleFamily,2014,92127,119977303
5.5,5,SAN DIEGO,4152,46,https://photos.zillowstatic.com/p_d/ISyrn8nv82d6m81000000000.jpg,33.016578,-117.128683,10890,2,,,1526960,Del Norte High School,CA,15785 Babcock St,SingleFamily,2013,92127,119977721
6.0,5,SAN DIEGO,4399,47,https://photos.zillowstatic.com/p_d/ISynoaa2pnaow60000000000.jpg,33.006836,-117.129249,10890,2,,,1873614,Del Norte High School,CA,15943 Sherwin Pl,SingleFamily,2016,92127,120286954
3.5,4,SAN DIEGO,2928,48,https://photos.zillowstatic.com/p_d/IS6eee9doby10p0000000000.jpg,33.010841,-117.128437,7501,2,,,1177956,Del Norte High School,CA,16490 Edgehill Rd,SingleFamily,2015,92127,120287079
3.5,4,SAN DIEGO,3101,49,https://photos.zillowstatic.com/p_d/IS6q32y3zoag5k0000000000.jpg,33.01342,-117.128522,6664,2,,Garage - Attached,1175863,Del Norte High School,CA,16559 Newcomb St,SingleFamily,2016,92127,120287537
3.0,3,SAN DIEGO,1940,50,https://photos.zillowstatic.com/p_d/ISmqezsr6yvl051000000000.jpg,33.016868,-117.130161,3998,2,6,Garage - Attached,843064,Del Norte High School,CA,15843 Babcock St,SingleFamily,2014,92127,120287593
3.0,4,SAN DIEGO,2695,51,https://photos.zillowstatic.com/p_d/ISmq6pz3mhvypi1000000000.jpg,33.011636,-117.128343,7501,2,,,1013414,Del Norte High School,CA,15892 Wakefield Ln,SingleFamily,2015,92127,120287738
3.0,3,SAN DIEGO,1940,52,,33.016969,-117.130336,2795,,,,850348,Del Norte High School,CA,15855 Babcock St,SingleFamily,2015,92127,120288259
4.0,4,SAN DIEGO,2537,53,https://photos.zillowstatic.com/p_d/ISq5tfc038mdvu1000000000.jpg,33.011992,-117.128956,5227,2,,,986753,Del Norte High School,CA,15852 Wakefield Ln,SingleFamily,2015,92127,120288262
3.0,4,Coronado,2283,54,https://photos.zillowstatic.com/p_d/ISmikeq5p0hpq21000000000.jpg,32.691054,-117.172283,4133,2,,"Carport, Garage - Attached",2200456,Coronado High School,CA,523 A Ave,SingleFamily,1930,92118,17070979
3.0,3,CORONADO,2015,55,https://photos.zillowstatic.com/p_d/ISdcq47miall2z0000000000.jpg,32.701397,-117.179551,3484,2,,Garage - Detached,2096636,Coronado High School,CA,112 I Ave,SingleFamily,2014,92118,17069256
3.0,3,CORONADO,2543,56,https://photos.zillowstatic.com/p_d/ISyr39q26cg78k1000000000.jpg,32.700201,-117.180918,10890,1,,"Garage - Attached, Off-street",2551198,Coronado High School,CA,200 Palm Ave,SingleFamily,1935,92118,17069606
4.0,4,CORONADO,3862,57,https://photos.zillowstatic.com/p_d/ISalidmeltgzoh1000000000.jpg,32.698939,-117.177516,5844,2,8,"Garage - Attached, Off-street, On-street",2500148,Coronado High School,CA,700 2nd St,SingleFamily,1980,92118,17069669
2.0,3,CORONADO,1509,58,https://photos.zillowstatic.com/p_d/ISec6xb5smycsw0000000000.jpg,32.69829,-117.177933,3998,1,5,Garage - Attached,1539370,Coronado High School,CA,245 G Ave,SingleFamily,1981,92118,17069676
3.0,4,CORONADO,2395,59,https://photos.zillowstatic.com/p_d/ISapxvpau9yk0o1000000000.jpg,32.698043,-117.175325,3340,2,8,"Carport, Garage - Attached",2240877,Coronado High School,CA,900 2nd St,SingleFamily,2006,92118,17069727
4.0,4,CORONADO,2320,60,https://photos.zillowstatic.com/p_d/ISma2btw2lboa21000000000.jpg,32.697212,-117.175733,7501,1,8,Garage - Detached,2080745,Coronado High School,CA,255 E Ave,SingleFamily,1944,92118,17069736
3.0,5,CORONADO,2120,61,https://photos.zillowstatic.com/p_d/ISqp0bhpjn8hu01000000000.jpg,32.696654,-117.175305,3680,2,11,,1565198,Coronado High School,CA,272 D Ave,SingleFamily,1944,92118,17069754
4.0,4,CORONADO,2118,62,https://photos.zillowstatic.com/p_d/ISynkb0sh767x00000000000.jpg,32.696136,-117.171954,3484,2,,Garage - Attached,1776411,Coronado High School,CA,231 C Ave,SingleFamily,2000,92118,17069840
2.0,4,CORONADO,2080,63,https://photos.zillowstatic.com/p_d/ISapdgcudt06ra0000000000.jpg,32.694964,-117.169433,3484,2,,Garage - Attached,1419003,Coronado High School,CA,235 El Chico Ln,SingleFamily,1956,92118,17069900
3.5,4,CORONADO,2047,64,https://photos.zillowstatic.com/p_d/ISpxevoqeejq8y0000000000.jpg,32.698735,-117.183062,6786,,,Garage - Attached,1634045,Coronado High School,CA,345 Alameda Blvd,SingleFamily,1934,92118,17069915
3.0,3,CORONADO,2033,65,https://photos.zillowstatic.com/p_d/ISmayr7c0udml21000000000.jpg,32.698166,-117.181437,3500,2,10,Garage - Detached,1502686,Coronado High School,CA,340 I Ave,SingleFamily,1961,92118,17069953
2.0,2,CORONADO,1345,66,https://photos.zillowstatic.com/p_d/ISew5u8fu21tat0000000000.jpg,32.697232,-117.179061,3998,2,6,,1302742,Coronado High School,CA,334 G Ave,SingleFamily,1924,92118,17069993
2.0,4,CORONADO,2172,67,https://photos.zillowstatic.com/p_d/IS5i1r9d05skfd0000000000.jpg,32.694027,-117.173303,7323,2,,Garage - Attached,1879995,Coronado High School,CA,1201 4th St,SingleFamily,1940,92118,17070203
6.0,6,CORONADO,3560,68,https://photos.zillowstatic.com/p_d/ISukbfhd16q45h1000000000.jpg,32.69371,-117.171414,5400,2,,"Garage - Attached, On-street",2602102,Coronado High School,CA,340 A Ave,SingleFamily,2013,92118,17070238
3.0,5,San Diego,1976,69,,32.696694,-117.186318,12570,1,8,Garage - Attached,2364642,Coronado High School,CA,530 Country Club Ln,SingleFamily,1963,92118,17070298
6.0,5,CORONADO,4061,70,https://photos.zillowstatic.com/p_d/ISi75ka3fyrazd0000000000.jpg,32.696305,-117.186544,12632,2,,Garage - Attached,3796083,Coronado High School,CA,550 Country Club Ln,SingleFamily,2012,92118,17070300
2.5,3,CORONADO,1850,71,https://photos.zillowstatic.com/p_d/IS2bpt4hj9d7ob0000000000.jpg,32.697401,-117.185143,10890,,,,2272531,Coronado High School,CA,461 Country Club Ln,SingleFamily,1953,92118,17070307
3.0,4,CORONADO,2122,72,,32.697449,-117.183815,3500,2,8,Garage - Detached,1610647,Coronado High School,CA,437 Alameda Blvd,SingleFamily,1970,92118,17070354
2.0,3,Encinitas,1665,73,https://photos.zillowstatic.com/p_d/ISy7o30gim2glo0000000000.jpg,33.041807,-117.270362,8276,1,8,Garage - Attached,983728,San Dieguito High Academy,CA,908 Avenida De San Clemente,SingleFamily,1961,92024,16719597
3.0,3,ENCINITAS,1663,74,https://photos.zillowstatic.com/p_d/IS6qjyh9fy50l71000000000.jpg,33.040005,-117.279513,4356,,,Garage - Attached,989185,San Dieguito High Academy,CA,940 Gardena Rd,SingleFamily,1990,92024,16718747
3.0,4,ENCINITAS,2012,75,https://photos.zillowstatic.com/p_d/IS66ootsse4xff0000000000.jpg,33.038998,-117.278549,9300,2,8,"Garage - Detached, Off-street",1383922,San Dieguito High Academy,CA,1044 Arcadia Rd,SingleFamily,2015,92024,16718880
2.0,4,ENCINITAS,2066,76,https://photos.zillowstatic.com/p_d/ISeo3j01ssn17g1000000000.jpg,33.039081,-117.268058,10890,1,8,,1027468,San Dieguito High Academy,CA,1011 Monterey Vista Way,SingleFamily,1987,92024,16719529
2.0,3,ENCINITAS,1196,77,https://photos.zillowstatic.com/p_d/ISe0lo5ms2q4ej0000000000.jpg,33.041141,-117.269759,7200,1,,"Garage - Attached, Off-street, On-street",1188268,San Dieguito High Academy,CA,933 Avenida De San Clemente,SingleFamily,1960,92024,16719636
2.0,4,ENCINITAS,1950,78,https://photos.zillowstatic.com/p_d/ISqdvyq013fvtd0000000000.jpg,33.040064,-117.269341,7200,1,9,"Garage - Attached, Off-street",979995,San Dieguito High Academy,CA,1058 Melba Rd,SingleFamily,1961,92024,16719653
2.5,3,ENCINITAS,2064,79,https://photos.zillowstatic.com/p_d/ISug8ebwrz6cp21000000000.jpg,33.041775,-117.263658,12196,1,,,1181485,San Dieguito High Academy,CA,252 Witham Rd,SingleFamily,1964,92024,16719698
2.0,4,ENCINITAS,1640,80,https://photos.zillowstatic.com/p_d/ISly49c85c6b8a1000000000.jpg,33.041421,-117.264516,10800,1,7,Garage - Attached,1048937,San Dieguito High Academy,CA,1218 Ahlrich Ave,SingleFamily,1969,92024,16719701
3.0,4,ENCINITAS,2440,81,https://photos.zillowstatic.com/p_d/ISi7l0ygn6uukf0000000000.jpg,33.041005,-117.263181,10890,1,,"Garage - Attached, Carport",1277899,San Dieguito High Academy,CA,1310 Ahlrich Ave,SingleFamily,1971,92024,16719707
2.0,3,ENCINITAS,1821,82,https://photos.zillowstatic.com/p_d/ISe0t69rzcnbys1000000000.jpg,33.041643,-117.26268,10890,1,,,986796,San Dieguito High Academy,CA,825 Crest Dr,SingleFamily,1964,92024,16719710
3.0,4,ENCINITAS,2818,83,https://photos.zillowstatic.com/p_d/IS2zzd2hq1s1ko0000000000.jpg,33.039287,-117.263083,15681,1,8,Garage - Attached,1377432,San Dieguito High Academy,CA,946 Doris Dr,SingleFamily,1984,92024,16719734
2.0,2,Encinitas,1364,84,https://photos.zillowstatic.com/p_d/ISyvmeutyynjlk1000000000.jpg,33.037273,-117.271246,21780,1,4,,1169432,San Dieguito High Academy,CA,1146 Evergreen Dr,SingleFamily,1964,92024,16720422
2.0,4,ENCINITAS,1983,85,https://photos.zillowstatic.com/p_d/IS2vkz9wsn2tg60000000000.jpg,33.040751,-117.258093,10890,1,12,Off-street,1136302,San Dieguito High Academy,CA,1429 Peartree Ct,SingleFamily,1974,92024,16721330
2.0,3,ENCINITAS,1633,86,https://photos.zillowstatic.com/p_d/ISin9qy6lnq0bd0000000000.jpg,33.043075,-117.258943,10890,,,,900673,San Dieguito High Academy,CA,664 Crest Dr,SingleFamily,1974,92024,16721375
2.0,3,Cardiff,1268,87,https://photos.zillowstatic.com/p_d/IS19kvv2yik0dyb.jpg,33.032763,-117.275683,7000,,,,883329,San Dieguito High Academy,CA,753 Ocean Crest Rd,SingleFamily,1957,92007,16722324
2.0,3,Cardiff,1537,88,https://photos.zillowstatic.com/p_d/ISyfyskbwrr4990000000000.jpg,33.034329,-117.272631,8102,1,9,Garage - Attached,1296010,San Dieguito High Academy,CA,1313 Windsor Rd,SingleFamily,1976,92007,16722379
2.0,3,Cardiff,1538,89,https://photos.zillowstatic.com/p_d/ISqhizt6en9tib0000000000.jpg,33.027558,-117.268751,7501,1,,,1023670,San Dieguito High Academy,CA,1631 Freda Ln,SingleFamily,1961,92007,16723154
2.0,3,Cardiff,1326,90,https://photos.zillowstatic.com/p_d/ISmywqofaecxzp1000000000.jpg,33.028453,-117.272512,7501,1,,"Garage - Attached, Off-street, On-street",913305,San Dieguito High Academy,CA,909 Nolbey St,SingleFamily,1961,92007,16723298
2.0,3,Cardiff,1326,91,https://photos.zillowstatic.com/p_d/ISiv3j3c9t1u151000000000.jpg,33.028472,-117.272035,7501,1,9,Garage - Attached,940948,San Dieguito High Academy,CA,923 Nolbey St,SingleFamily,1961,92007,16723300
2.0,4,EL CAJON,1523,92,https://photos.zillowstatic.com/p_d/ISa1v5dpyaq5kx0000000000.jpg,32.800178,-116.990617,7501,1,7,Garage - Attached,602789,Grossmont Middle College High School,CA,1976 Willis Rd,SingleFamily,1958,92020,17018772
2.0,3,EL CAJON,1544,93,https://photos.zillowstatic.com/p_d/IS2fcyiibsm69s0000000000.jpg,32.791533,-116.988016,10890,1,,Garage - Attached,597893,Grossmont Middle College High School,CA,370 Cottonpatch Way,SingleFamily,1962,92020,17023612
3.0,3,EL CAJON,3300,94,,32.793052,-116.98601,13700,1,9,"Garage - Attached, Off-street",838276,Grossmont Middle College High School,CA,287 Hihill Way,SingleFamily,1963,92020,17023618
2.0,4,EL CAJON,1794,95,https://photos.zillowstatic.com/p_d/ISizm4c96ubcmt1000000000.jpg,32.793546,-116.987006,10890,1,,"Garage - Attached, Off-street, On-street",602489,Grossmont Middle College High School,CA,208 Cottonpatch Way,SingleFamily,1965,92020,17023633
3.0,4,EL CAJON,2240,96,,32.797162,-116.993219,10018,2,7,Garage - Attached,641323,Grossmont Middle College High School,CA,2057 Dryden Rd,SingleFamily,1964,92020,17023659
3.0,3,EL CAJON,1748,97,https://photos.zillowstatic.com/p_d/IS6y9oduxbgj2v1000000000.jpg,32.795208,-116.990635,10890,1,6,"Garage - Attached, Off-street, On-street",617082,Grossmont Middle College High School,CA,1993 Wedgemere Rd,SingleFamily,1955,92020,17023773
2.0,4,EL CAJON,1315,98,https://photos.zillowstatic.com/p_d/ISib4yf9cnnfe60000000000.jpg,32.79638,-116.990829,8700,1,4,Garage - Attached,547961,Grossmont Middle College High School,CA,2031 Batchelder Ct,SingleFamily,1952,92020,17023800
2.0,3,EL CAJON,1999,99,https://photos.zillowstatic.com/p_d/ISu005a9qtnm580000000000.jpg,32.798423,-116.989222,10890,1,,,665315,Grossmont Middle College High School,CA,351 Aldwych Rd,SingleFamily,1950,92020,17023900
3.0,4,El Cajon,1503,100,https://photos.zillowstatic.com/p_d/IS6itw4nucihed1000000000.jpg,32.799038,-116.988082,21780,,,,563182,Grossmont Middle College High School,CA,386 Tyrone St,SingleFamily,1951,92020,17023906
2.0,3,EL CAJON,1446,101,https://photos.zillowstatic.com/p_d/IS6il2sa61hl9p0000000000.jpg,32.795401,-116.984815,12200,,7,Garage - Attached,586260,Grossmont Middle College High School,CA,1559 Chiswick Ct,SingleFamily,1963,92020,17024007
3.0,4,EL CAJON,3223,102,https://photos.zillowstatic.com/p_d/ISyjh6vogicjuu0000000000.jpg,32.795229,-116.98418,18100,1,10,Garage - Attached,823102,Grossmont Middle College High School,CA,1550 Chiswick Ct,SingleFamily,1966,92020,17024009
2.0,3,LA MESA,1818,103,https://photos.zillowstatic.com/p_d/IS6y9o9nlyufo81000000000.jpg,32.794953,-116.993195,13800,1,,Garage - Attached,623713,Grossmont Middle College High School,CA,6391 Falmouth Dr,SingleFamily,1953,91942,17024371
4.0,5,LA MESA,2489,104,https://photos.zillowstatic.com/p_d/ISy787848j4onb0000000000.jpg,32.79316,-116.993395,7501,2,9,"Garage - Attached, Off-street, On-street",614354,Grossmont Middle College High School,CA,6281 Falmouth Dr,SingleFamily,1980,91942,17024382
3.0,4,LA MESA,1893,105,https://photos.zillowstatic.com/p_d/ISqtrel1icecbj0000000000.jpg,32.794733,-116.991459,10890,2,8,Garage - Attached,620660,Grossmont Middle College High School,CA,6380 Henderson Dr,SingleFamily,1960,91942,17024442
2.0,3,LA MESA,2328,106,https://photos.zillowstatic.com/p_d/ISq1yko7czkn3r1000000000.jpg,32.787509,-116.988578,10890,,,,725260,Grossmont Middle College High School,CA,6027 Poppy St,SingleFamily,1982,91942,17024561
2.0,3,LA MESA,1500,107,https://photos.zillowstatic.com/p_d/ISu0onsisvmxcf0000000000.jpg,32.790554,-116.986607,10018,1,7,Garage - Attached,563629,Grossmont Middle College High School,CA,9810 Murray Dr,SingleFamily,1958,91942,17024588
2.0,4,EL CAJON,1958,108,https://photos.zillowstatic.com/p_d/ISecii8mv1edcc0000000000.jpg,32.794412,-116.986305,10890,1,9,Garage - Attached,621388,Grossmont Middle College High School,CA,156 S Westwind Dr,SingleFamily,1955,92020,17024594
3.0,4,CARLSBAD,2403,109,https://photos.zillowstatic.com/p_d/IS2fsmcif3g6vi0000000000.jpg,33.161698,-117.314739,7501,2,,Garage - Attached,782973,Sage Creek High School,CA,3828 Sierra Morena Ave,SingleFamily,1972,92010,16618931
2.5,3,CARLSBAD,1722,110,https://photos.zillowstatic.com/p_d/ISq986y7vx8cqy0000000000.jpg,33.167952,-117.311039,7501,,,,775329,Sage Creek High School,CA,3601 Pontiac Dr,SingleFamily,1979,92010,16619412
3.0,4,CARLSBAD,1921,111,https://photos.zillowstatic.com/p_d/ISqpwrjradin7o1000000000.jpg,33.166902,-117.312313,10890,2,11,Garage - Attached,819222,Sage Creek High School,CA,2721 Chestnut Ave,SingleFamily,1979,92010,16619432
2.0,2,CARLSBAD,1000,112,https://photos.zillowstatic.com/p_d/ISiz64p6r9d0qx0000000000.jpg,33.165545,-117.30314,3998,1,,Carport,457334,Sage Creek High School,CA,3732 Bennington Ct,Townhouse,1986,92010,16620219
2.5,4,CARLSBAD,1997,113,https://photos.zillowstatic.com/p_d/ISiboh884w5ksc1000000000.jpg,33.170299,-117.303328,7501,2,,,618147,Sage Creek High School,CA,2976 Greenwich St,Townhouse,1986,92010,16620617
2.0,4,CARLSBAD,1791,114,https://photos.zillowstatic.com/p_d/ISewli6ql0oye61000000000.jpg,33.162422,-117.312777,10890,,,,862538,Sage Creek High School,CA,2618 Half Dome Pl,SingleFamily,1986,92010,16620683
3.0,3,CARLSBAD,1855,115,https://photos.zillowstatic.com/p_d/ISesuuy9yxs2zr0000000000.jpg,33.163007,-117.312205,8276,2,15,Garage - Attached,,Sage Creek High School,CA,2631 Sausalito Ave,SingleFamily,1989,92010,16620738
3.0,5,CARLSBAD,3039,116,https://photos.zillowstatic.com/p_d/ISivvc9m9ogcot0000000000.jpg,33.162537,-117.311336,8712,2,8,Garage - Attached,925425,Sage Creek High School,CA,2653 Sausalito Ave,SingleFamily,1989,92010,16620741
2.0,3,CARLSBAD,1797,117,https://photos.zillowstatic.com/p_d/ISib035110c4hr1000000000.jpg,33.164346,-117.308888,21780,1,,,862804,Sage Creek High School,CA,2732 Berkeley Ave,SingleFamily,1989,92010,16621193
2.5,4,Carlsbad,2067,118,https://photos.zillowstatic.com/p_d/ISe05005jc16ha1000000000.jpg,33.163051,-117.305213,10890,,,,781267,Sage Creek High School,CA,4370 Stanford St,SingleFamily,1988,92010,16621218
3.0,4,CARLSBAD,1591,119,https://photos.zillowstatic.com/p_d/ISindhq9czu7g10000000000.jpg,33.157626,-117.313126,3920,,,,649327,Sage Creek High School,CA,4415 Sierra Morena Ave,SingleFamily,1977,92010,16650290
3.0,3,CARLSBAD,1581,120,https://photos.zillowstatic.com/p_d/ISu0wlgeuqri1n1000000000.jpg,33.159134,-117.313555,3120,,,"Garage - Attached, Off-street, On-street",650884,Sage Creek High School,CA,4304 Sierra Morena Ave,SingleFamily,1979,92010,16650317
2.5,3,CARLSBAD,1401,121,https://photos.zillowstatic.com/p_d/ISu4bwpl5cm1mn0000000000.jpg,33.159914,-117.31461,3998,2,,,585605,Sage Creek High School,CA,4203 Sierra Morena Ave,SingleFamily,1979,92010,16650358
2.0,3,CARLSBAD,1812,122,https://photos.zillowstatic.com/p_d/ISyrzt3w0ndzi10000000000.jpg,33.161721,-117.298751,10890,,,,796890,Sage Creek High School,CA,4742 Inverness Ct,SingleFamily,1982,92010,16650372
3.0,3,CARLSBAD,2070,123,https://photos.zillowstatic.com/p_d/IS2nelsdt4v5a51000000000.jpg,33.161382,-117.299814,10890,1,9,Garage - Attached,895473,Sage Creek High School,CA,4747 Edinburgh Dr,SingleFamily,1983,92010,16650432
3.0,4,CARLSBAD,2402,124,https://photos.zillowstatic.com/p_d/ISyrfavci7z4721000000000.jpg,33.158609,-117.301635,10890,2,,Garage - Attached,901917,Sage Creek High School,CA,4729 Gateshead Rd,SingleFamily,1984,92010,16650447
2.0,3,CARLSBAD,1476,125,https://photos.zillowstatic.com/p_d/IS2rha5cvtw4cz0000000000.jpg,33.159322,-117.300388,10890,,,,723626,Sage Creek High School,CA,2721 Greenock Ct,SingleFamily,1983,92010,16650472
2.0,3,CARLSBAD,1500,126,,33.159771,-117.301578,7840,1,,Garage - Attached,782043,Sage Creek High School,CA,2718 Inverness Dr,SingleFamily,1983,92010,16650479
2.0,3,CARLSBAD,1868,127,https://photos.zillowstatic.com/p_d/IS27e6gk55y84y0000000000.jpg,33.159649,-117.299397,10890,1,,,819261,Sage Creek High School,CA,4771 Brookwood Ct,SingleFamily,1986,92010,16650502
2.0,3,CARLSBAD,1624,128,https://photos.zillowstatic.com/p_d/IS272h8si5ekit1000000000.jpg,33.160162,-117.312887,10643,1,10,Garage - Attached,721103,Sage Creek High School,CA,4431 Salisbury Dr,SingleFamily,1986,92010,16650564
3.0,3,San Diego,1965,129,https://photos.zillowstatic.com/p_d/ISir41jjdrhc8t0000000000.jpg,33.007191,-117.071114,7501,2,8,Garage - Attached,748893,Rancho Bernardo High School,CA,12190 Iron View Row,SingleFamily,1986,92128,16746117
2.0,3,SAN DIEGO,1747,130,https://photos.zillowstatic.com/p_d/ISqdz5vz17m7ac1000000000.jpg,33.012099,-117.063384,6000,1,7,"Garage - Attached, On-street",606885,Rancho Bernardo High School,CA,16448 Felice Dr,SingleFamily,1960,92128,16743314
2.0,2,SAN DIEGO,1770,131,https://photos.zillowstatic.com/p_d/ISq16f9mb9qfh90000000000.jpg,33.008871,-117.061587,7700,1,,,623618,Rancho Bernardo High School,CA,12403 Lomica Dr,SingleFamily,1969,92128,16743442
2.0,2,SAN DIEGO,1770,132,,33.008476,-117.060456,8100,1,,Garage - Attached,625799,Rancho Bernardo High School,CA,12492 Nacido Dr,SingleFamily,1972,92128,16743690
2.0,2,SAN DIEGO,1770,133,https://photos.zillowstatic.com/p_d/IS2vws888n1czi1000000000.jpg,33.007499,-117.057915,10890,1,5,Garage - Attached,647790,Rancho Bernardo High School,CA,12585 Nacido Dr,SingleFamily,1972,92128,16743696
2.5,3,SAN DIEGO,2223,134,https://photos.zillowstatic.com/p_d/ISynsp47qojpwk0000000000.jpg,33.014228,-117.065561,7501,,,,744141,Rancho Bernardo High School,CA,12276 Casero Ct,SingleFamily,1963,92128,16744403
2.0,2,SAN DIEGO,1770,135,https://photos.zillowstatic.com/p_d/ISyngseraagu5n1000000000.jpg,33.007373,-117.061516,7405,1,,Garage - Attached,621127,Rancho Bernardo High School,CA,16204 Selva Dr,SingleFamily,1970,92128,16744604
2.0,2,SAN DIEGO,1770,136,https://photos.zillowstatic.com/p_d/IS27ytff2et4h40000000000.jpg,33.007162,-117.062281,7501,1,,,661764,Rancho Bernardo High School,CA,12404 Oliva Rd,SingleFamily,1970,92128,16744610
2.0,3,SAN DIEGO,1926,137,https://photos.zillowstatic.com/p_d/ISqltq198wzy441000000000.jpg,33.006511,-117.061961,10890,,,,707234,Rancho Bernardo High School,CA,16172 Selva Dr,SingleFamily,1970,92128,16744649
2.0,2,SAN DIEGO,1709,138,https://photos.zillowstatic.com/p_d/IS23jbwi6xf7ov0000000000.jpg,33.006028,-117.061597,12200,1,7,,668606,Rancho Bernardo High School,CA,16167 Selva Dr,SingleFamily,1970,92128,16744687
2.0,2,SAN DIEGO,1770,139,https://photos.zillowstatic.com/p_d/ISqpg7t037e3530000000000.jpg,33.008772,-117.056852,7501,1,4,"Garage - Attached, Off-street",649239,Rancho Bernardo High School,CA,16291 Gabarda Rd,SingleFamily,1972,92128,16744712
2.0,2,SAN DIEGO,1770,140,https://photos.zillowstatic.com/p_d/ISijyiu80wgjm20000000000.jpg,33.008273,-117.058014,10890,1,,Garage - Attached,648366,Rancho Bernardo High School,CA,12585 Lomica Dr,SingleFamily,1972,92128,16744739
2.0,3,San Diego,1905,141,https://photos.zillowstatic.com/p_d/IS2vs1l86e9zsr0000000000.jpg,33.010298,-117.058214,7900,1,7,Garage - Attached,690788,Rancho Bernardo High School,CA,16332 Relindo Ct,SingleFamily,1972,92128,16744761
2.0,3,SAN DIEGO,1905,142,https://photos.zillowstatic.com/p_d/ISyrbnq6zkdtel1000000000.jpg,33.0101,-117.057522,7501,1,,,650011,Rancho Bernardo High School,CA,12622 Bendito Dr,SingleFamily,1972,92128,16744778
2.0,3,SAN DIEGO,1770,143,https://photos.zillowstatic.com/p_d/ISukrrdvvn2sez0000000000.jpg,33.012838,-117.059166,10890,1,,,693534,Rancho Bernardo High School,CA,12523 Palero Rd,SingleFamily,1972,92128,16744828
3.0,4,SAN DIEGO,2724,144,https://photos.zillowstatic.com/p_d/ISeciyg7q7fkcy0000000000.jpg,33.010032,-117.074432,7501,2,,,857051,Rancho Bernardo High School,CA,16368 Avenida Suavidad,SingleFamily,1986,92128,16745646
3.0,4,SAN DIEGO,2457,145,https://photos.zillowstatic.com/p_d/IS1f0h1g086sxk1000000000.jpg,33.00864,-117.0745,10890,2,8,Garage - Attached,843616,Rancho Bernardo High School,CA,16295 Avenida Suavidad,SingleFamily,1985,92128,16745677
2.0,3,SAN DIEGO,1877,146,https://photos.zillowstatic.com/p_d/ISu4zewdyddecq1000000000.jpg,33.008874,-117.073889,10890,1,5,"Garage - Attached, Off-street",747119,Rancho Bernardo High School,CA,11939 Calle Suntuoso,SingleFamily,1984,92128,16745681
3.0,4,SAN DIEGO,2761,147,https://photos.zillowstatic.com/p_d/ISq1ule1c9is3j1000000000.jpg,33.010821,-117.067853,7501,2,,"Garage - Attached, Off-street",965222,Rancho Bernardo High School,CA,12186 Avenida Consentido,SingleFamily,1987,92128,16745706
2.0,3,SAN DIEGO,2122,148,https://photos.zillowstatic.com/p_d/ISyngsu3rns69j0000000000.jpg,33.012073,-117.071694,7095,,,,802454,Rancho Bernardo High School,CA,16484 Calle Pulido,SingleFamily,1987,92128,16745738
3.0,3,La Jolla,3379,149,https://photos.zillowstatic.com/p_d/ISqpccqeyfujcf0000000000.jpg,32.851909,-117.24294,39640,3,10,,2667931,Preuss School UCSD,CA,7799 Starlight Dr,SingleFamily,1978,92037,16839752
4.0,5,La Jolla,2820,150,https://photos.zillowstatic.com/p_d/IS2rdbjkiqelwb1000000000.jpg,32.847271,-117.258351,10018,,,,2207638,Preuss School UCSD,CA,2005 Soledad Ave,SingleFamily,1940,92037,16851267
2.0,3,LA JOLLA,2958,151,https://photos.zillowstatic.com/p_d/ISu0wxxzflchin0000000000.jpg,32.862791,-117.25272,10890,,9,Carport,2737160,Preuss School UCSD,CA,8553 La Jolla Shores Dr,SingleFamily,1959,92037,16838533
3.0,5,LA JOLLA,2573,152,https://photos.zillowstatic.com/p_d/ISq90wsid31dul1000000000.jpg,32.859929,-117.251922,24393,1,,Garage - Attached,3580111,Preuss School UCSD,CA,2360 Calle Del Oro,SingleFamily,1955,92037,16838544
3.0,5,LA JOLLA,3870,153,https://photos.zillowstatic.com/p_d/IS2znsdmdex0qv1000000000.jpg,32.859955,-117.247115,20037,2,12,Garage - Attached,2536272,Preuss School UCSD,CA,8433 Prestwick Dr,SingleFamily,1970,92037,16838563
5.0,4,LA JOLLA,4690,154,,32.854402,-117.251232,21780,1,,Garage - Attached,3872766,Preuss School UCSD,CA,2416 Avenida De La Playa,SingleFamily,1966,92037,16838948
4.0,5,LA JOLLA,3814,155,https://photos.zillowstatic.com/p_d/ISybrwzuzxv3wu0000000000.jpg,32.853327,-117.253028,24393,1,,Garage - Detached,3807190,Preuss School UCSD,CA,2315 Avenida De La Playa,SingleFamily,1965,92037,16839052
3.0,4,LA JOLLA,2452,156,https://photos.zillowstatic.com/p_d/ISuk3tqjgbp6350000000000.jpg,32.84886,-117.254723,10890,1,9,Garage - Attached,2478848,Preuss School UCSD,CA,7780 Roseland Dr,SingleFamily,1950,92037,16839282
4.0,4,LA JOLLA,3634,157,https://photos.zillowstatic.com/p_d/ISyjpgcb8mhcxl0000000000.jpg,32.848315,-117.25459,19166,1,,Garage - Detached,2751199,Preuss School UCSD,CA,11 E Roseland Dr,SingleFamily,1955,92037,16839408
6.0,4,LA JOLLA,3900,158,https://photos.zillowstatic.com/p_d/ISyfqivurzfq0c1000000000.jpg,32.845156,-117.246852,54885,1,,,4150536,Preuss School UCSD,CA,2810 Hidden Valley Rd,SingleFamily,1955,92037,16839671
5.5,5,LA JOLLA,4518,159,https://photos.zillowstatic.com/p_d/IS2f8f5chjq1dr1000000000.jpg,32.846308,-117.250037,43560,,,Garage - Attached,4145374,Preuss School UCSD,CA,2695 Hidden Valley Rd,SingleFamily,2018,92037,16839697
3.0,3,LA JOLLA,3044,160,https://photos.zillowstatic.com/p_d/IS62dtuekqds8q1000000000.jpg,32.84968,-117.245655,20126,2,12,"Carport, Off-street",1881148,Preuss School UCSD,CA,7834 Esterel Dr,SingleFamily,1965,92037,16839723
5.0,5,LA JOLLA,6242,161,https://photos.zillowstatic.com/p_d/ISybvjk1uryuvs1000000000.jpg,32.850805,-117.24263,23958,,,Garage - Attached,4327476,Preuss School UCSD,CA,7777 Starlight Dr,SingleFamily,1987,92037,16839762
3.0,5,LA JOLLA,2552,162,https://photos.zillowstatic.com/p_d/IS1jbkeqhue5yo1000000000.jpg,32.863329,-117.24427,13329,1,,,1835796,Preuss School UCSD,CA,2883 Inverness Dr,SingleFamily,1968,92037,16839793
3.0,4,LA JOLLA,2522,163,https://photos.zillowstatic.com/p_d/IS2bp1z5xwf6zi1000000000.jpg,32.861417,-117.24629,10318,1,12,Garage - Attached,1834448,Preuss School UCSD,CA,2732 Inverness Dr,SingleFamily,1968,92037,16839832
2.5,4,LA JOLLA,2612,164,,32.860796,-117.241839,10890,1,,,1686132,Preuss School UCSD,CA,2835 Cliffridge Ct,SingleFamily,1971,92037,16839908
3.0,4,LA JOLLA,2784,165,https://photos.zillowstatic.com/p_d/IS-1m92oxs5wq7od.jpg,32.861826,-117.238661,10200,1,9,Garage - Attached,1950918,Preuss School UCSD,CA,3036 Cranbrook Ct,SingleFamily,1961,92037,16840172
3.0,4,LA JOLLA,3012,166,https://photos.zillowstatic.com/p_d/ISifjolgxo3esa1000000000.jpg,32.847118,-117.267852,10890,2,,Garage - Attached,2233336,Preuss School UCSD,CA,1466 Torrey Pines Rd,SingleFamily,1953,92037,16848192
3.0,3,LA JOLLA,2152,167,,32.846034,-117.265496,14540,2,,Garage - Attached,3056980,Preuss School UCSD,CA,7709 Prospect Pl,SingleFamily,1952,92037,16848223
2.5,3,SAN DIEGO,1882,168,https://photos.zillowstatic.com/p_d/ISu8aue8c1zgkf0000000000.jpg,32.945026,-117.1124,9600,,,Garage - Attached,714254,Mt. Carmel High School,CA,9645 Paseo Montril,SingleFamily,1974,92129,16805410
3.0,3,SAN DIEGO,1882,169,https://photos.zillowstatic.com/p_d/ISq5lt17h3se0a0000000000.jpg,32.945377,-117.111474,10890,2,6,"Garage - Attached, Off-street",732983,Mt. Carmel High School,CA,9695 Paseo Montril,SingleFamily,1974,92129,16805415
3.0,4,SAN DIEGO,2304,170,https://photos.zillowstatic.com/p_d/IS1znwkqc5rto31000000000.jpg,32.948264,-117.110634,7501,2,11,"Garage - Attached, Off-street",819625,Mt. Carmel High School,CA,12719 Mengibar Ave,SingleFamily,1977,92129,16805542
3.0,3,SAN DIEGO,2042,171,https://photos.zillowstatic.com/p_d/ISmepb41cr55yr0000000000.jpg,32.945853,-117.1153,6674,2,,,773338,Mt. Carmel High School,CA,12546 Cabezon Pl,SingleFamily,1978,92129,16805611
2.5,4,SAN DIEGO,2049,172,,32.944398,-117.114404,7501,,,,781840,Mt. Carmel High School,CA,12436 Via Cabezon,SingleFamily,1975,92129,16805667
3.0,4,SAN DIEGO,2486,173,https://photos.zillowstatic.com/p_d/IS66klwh67hgq40000000000.jpg,32.949696,-117.114936,10890,2,10,"Garage - Attached, Off-street",851767,Mt. Carmel High School,CA,9830 La Tortola Ct,SingleFamily,1984,92129,16807904
3.0,4,SAN DIEGO,2292,174,https://photos.zillowstatic.com/p_d/IS2fc6xa9bzpko1000000000.jpg,32.947245,-117.115788,7501,2,9,Garage - Attached,853865,Mt. Carmel High School,CA,12626 La Tortola,SingleFamily,1983,92129,16807936
2.0,3,SAN DIEGO,1571,175,https://photos.zillowstatic.com/p_d/IS6eummt9fudp71000000000.jpg,32.948544,-117.115055,10890,,,,741942,Mt. Carmel High School,CA,9830 La Tortola Pl,SingleFamily,1983,92129,16807956
3.0,4,SAN DIEGO,2190,176,https://photos.zillowstatic.com/p_d/ISmi4iihql64zl0000000000.jpg,32.942133,-117.116791,7501,2,7,,839688,Mt. Carmel High School,CA,12257 Branicole Ln,SingleFamily,1990,92129,16809506
3.0,4,SAN DIEGO,2042,177,https://photos.zillowstatic.com/p_d/ISq1mz3k70z8xa0000000000.jpg,32.939754,-117.115913,7501,2,,Garage - Attached,801167,Mt. Carmel High School,CA,12189 Branicole Ln,SingleFamily,1990,92129,16809522
3.0,4,SAN DIEGO,2241,178,https://photos.zillowstatic.com/p_d/ISqd7wshh4dy6e1000000000.jpg,32.937557,-117.120886,7501,2,,,871711,Mt. Carmel High School,CA,11894 Mendiola Pt,SingleFamily,1992,92129,16809587
3.0,5,SAN DIEGO,2740,179,https://photos.zillowstatic.com/p_d/IS2f4gnvrsvgun1000000000.jpg,32.936587,-117.121931,7501,2,12,"Garage - Attached, On-street",914785,Mt. Carmel High School,CA,11874 Meajean Pl,SingleFamily,1995,92129,16809605
3.0,5,SAN DIEGO,2740,180,https://photos.zillowstatic.com/p_d/ISt08bgol37mch1000000000.jpg,32.935784,-117.121657,4497,2,,Garage - Attached,914742,Mt. Carmel High School,CA,11812 Meajean Pl,SingleFamily,1994,92129,16809611
2.5,4,SAN DIEGO,2356,181,https://photos.zillowstatic.com/p_d/IS2ni4eek7ktoj0000000000.jpg,32.939732,-117.121431,7501,2,,,868915,Mt. Carmel High School,CA,9406 Chabola Rd,SingleFamily,1991,92129,16810232
3.0,4,SAN DIEGO,2356,182,https://photos.zillowstatic.com/p_d/ISe0xlv105od4s0000000000.jpg,32.941781,-117.119207,7501,2,9,Garage - Attached,862105,Mt. Carmel High School,CA,9514 Hito Ct,SingleFamily,1993,92129,16810257
3.0,5,SAN DIEGO,2740,183,https://photos.zillowstatic.com/p_d/ISewdkuznds5171000000000.jpg,32.94166,-117.118475,7501,2,,"Garage - Attached, On-street",917266,Mt. Carmel High School,CA,9535 Hito Ct,SingleFamily,1994,92129,16810267
2.5,4,SAN DIEGO,2356,184,https://photos.zillowstatic.com/p_d/ISado0q61blv1o1000000000.jpg,32.941015,-117.119391,10890,,,,860969,Mt. Carmel High School,CA,9496 Hito Ct,SingleFamily,1991,92129,16810270
3.0,4,SAN DIEGO,2381,185,https://photos.zillowstatic.com/p_d/IS5avc44kiomj20000000000.jpg,32.94079,-117.121075,4225,,,Garage - Attached,858061,Mt. Carmel High School,CA,9436 Hito Ct,SingleFamily,1991,92129,16810280
3.0,4,SAN DIEGO,2356,186,https://photos.zillowstatic.com/p_d/ISmaukf62t1n330000000000.jpg,32.939847,-117.121172,4308,2,,,862398,Mt. Carmel High School,CA,9416 Chabola Rd,SingleFamily,1991,92129,16810304
3.0,5,San Diego,2383,187,,32.851698,-117.211562,7100,,,Garage - Attached,991334,Mt. Everest Academy,CA,3521 Stetson Ave,SingleFamily,1965,92122,16844342
2.0,3,SAN DIEGO,1468,188,https://photos.zillowstatic.com/p_d/ISir8sudbuzhh30000000000.jpg,32.853305,-117.218862,7501,,,,785746,Mt. Everest Academy,CA,3146 Briand Ave,SingleFamily,1962,92122,16841991
2.0,3,SAN DIEGO,1909,189,https://photos.zillowstatic.com/p_d/ISirwynfxaausk1000000000.jpg,32.852511,-117.219161,6534,1,6,,832809,Mt. Everest Academy,CA,3118 Ducommun Ave,SingleFamily,1963,92122,16842048
2.0,3,SAN DIEGO,1286,190,https://photos.zillowstatic.com/p_d/ISekwys6308fui0000000000.jpg,32.847627,-117.198308,10890,,,,775248,Mt. Everest Academy,CA,5841 Dirac St,SingleFamily,1964,92122,16843353
2.0,3,SAN DIEGO,1204,191,,32.857585,-117.193997,5700,1,,,740945,Mt. Everest Academy,CA,4645 Ramsay Ave,SingleFamily,1963,92122,16843874
2.0,4,SAN DIEGO,1400,192,https://photos.zillowstatic.com/p_d/ISuchid6lu2plx0000000000.jpg,32.858348,-117.192965,5700,1,7,Garage - Attached,766388,Mt. Everest Academy,CA,4738 Pauling Ave,SingleFamily,1962,92122,16843889
2.0,4,SAN DIEGO,1539,193,https://photos.zillowstatic.com/p_d/ISir8g5qis59g31000000000.jpg,32.854622,-117.206509,6500,1,9,"Carport, Off-street, On-street",791786,Mt. Everest Academy,CA,3780 Governor Dr,SingleFamily,1963,92122,16843994
2.0,3,SAN DIEGO,1064,194,https://photos.zillowstatic.com/p_d/IS2bhblvs0ixdi0000000000.jpg,32.855306,-117.206738,6300,1,,,760184,Mt. Everest Academy,CA,3784 Millikin Ave,SingleFamily,1963,92122,16844006
2.0,4,SAN DIEGO,1319,195,https://photos.zillowstatic.com/p_d/ISi7tq35585ccy0000000000.jpg,32.855127,-117.208054,7100,,,,824504,Mt. Everest Academy,CA,3723 Cascade Ct,SingleFamily,1963,92122,16844031
2.0,3,SAN DIEGO,1204,196,https://photos.zillowstatic.com/p_d/ISa91gbubhfzl40000000000.jpg,32.858841,-117.189599,5800,1,,Garage - Attached,779972,Mt. Everest Academy,CA,7228 Werner St,SingleFamily,1964,92122,16844185
2.0,3,SAN DIEGO,1204,197,https://photos.zillowstatic.com/p_d/ISucpwhl5vs7xw0000000000.jpg,32.858325,-117.189372,10890,,,Carport,752039,Mt. Everest Academy,CA,7217 Werner St,SingleFamily,1964,92122,16844208
2.5,4,SAN DIEGO,1698,198,https://photos.zillowstatic.com/p_d/ISucdr572jtgax0000000000.jpg,32.853217,-117.199606,7501,,,,812989,Mt. Everest Academy,CA,4244 Pavlov Ave,SingleFamily,1969,92122,16844525
2.5,4,SAN DIEGO,1698,199,https://photos.zillowstatic.com/p_d/ISe446zczz96at1000000000.jpg,32.84959,-117.203123,7501,3,,,926573,Mt. Everest Academy,CA,6125 Tamilynn St,SingleFamily,1969,92122,16844616
2.0,4,SAN DIEGO,1791,200,,32.851445,-117.200606,7501,1,7,Garage - Attached,933496,Mt. Everest Academy,CA,6062 Charae St,SingleFamily,1968,92122,16844690
2.0,4,SAN DIEGO,1648,201,https://photos.zillowstatic.com/p_d/ISewdwbh6dadbc1000000000.jpg,32.85257,-117.199626,7300,1,6,Garage - Attached,891197,Mt. Everest Academy,CA,6159 Charae St,SingleFamily,1969,92122,16844699
3.0,5,SAN DIEGO,2169,202,https://photos.zillowstatic.com/p_d/ISizeuqbjnxnvt0000000000.jpg,32.847406,-117.200145,10890,,,,869554,Mt. Everest Academy,CA,4310 Cozzens Ct,SingleFamily,1969,92122,16844792
3.0,4,OCEANSIDE,2673,203,https://photos.zillowstatic.com/p_d/ISyrzpwjfdso5x0000000000.jpg,33.252665,-117.252881,10890,1,10,Garage - Attached,719667,Mission Vista High School,CA,5851 Ranch View Rd,SingleFamily,2000,92057,16590095
3.0,4,OCEANSIDE,2462,204,https://photos.zillowstatic.com/p_d/ISmqim5c2ow9gr1000000000.jpg,33.252654,-117.252549,10890,2,7,Garage - Attached,676915,Mission Vista High School,CA,5855 Ranch View Rd,SingleFamily,1992,92057,16590094
3.0,4,OCEANSIDE,2773,205,https://photos.zillowstatic.com/p_d/ISesyhfdvixfac1000000000.jpg,33.253414,-117.249868,32670,1,,Garage - Attached,791083,Mission Vista High School,CA,5878 Ranch View Rd,SingleFamily,1992,92057,16590081
3.0,2,OCEANSIDE,1295,206,https://photos.zillowstatic.com/p_d/ISuk31l0kx5dk91000000000.jpg,33.250534,-117.262635,3998,2,5,Garage - Attached,388766,Mission Vista High School,CA,1509 Goldrush Way,Townhouse,1988,92057,16589591
3.0,5,OCEANSIDE,3058,207,https://photos.zillowstatic.com/p_d/ISadgub1ghu7jk1000000000.jpg,33.243183,-117.249092,10890,2,14,"Garage - Attached, Off-street",699616,Mission Vista High School,CA,1468 Belmont Park Rd,SingleFamily,2005,92057,16592314
3.0,5,OCEANSIDE,2963,208,https://photos.zillowstatic.com/p_d/ISibwv4ha7v7eh0000000000.jpg,33.242969,-117.247388,12555,2,,Garage - Attached,721011,Mission Vista High School,CA,1451 Belmont Park Rd,SingleFamily,2001,92057,16592337
3.0,5,OCEANSIDE,2963,209,https://photos.zillowstatic.com/p_d/ISatkggw2myl671000000000.jpg,33.244084,-117.246732,12196,2,,Garage - Attached,718944,Mission Vista High School,CA,1472 Serene Rd,SingleFamily,2000,92057,16592347
2.0,4,VISTA,1624,210,https://photos.zillowstatic.com/p_d/ISmexdrajsepzr1000000000.jpg,33.241202,-117.250535,23958,1,,Garage - Attached,480276,Mission Vista High School,CA,2342 Bautista Ave,SingleFamily,1959,92084,16597488
3.0,4,Oceanside,1986,211,https://photos.zillowstatic.com/p_d/ISa1zslu708eox1000000000.jpg,33.246105,-117.250007,21780,1,,"Garage - Attached, Garage - Detached",624213,Mission Vista High School,CA,1509 Del Mar Rd,SingleFamily,1988,92057,16588779
2.5,3,OCEANSIDE,1474,212,https://photos.zillowstatic.com/p_d/ISu4vz11nfe74u1000000000.jpg,33.251359,-117.260667,3998,,,,399936,Mission Vista High School,CA,5673 Raintree Way,Townhouse,1986,92057,16589538
2.0,2,OCEANSIDE,1161,213,https://photos.zillowstatic.com/p_d/ISqd3x6q8qr7og1000000000.jpg,33.248102,-117.259951,7501,1,,,424352,Mission Vista High School,CA,1628 Appaloosa Way,SingleFamily,1987,92057,16589267
2.5,4,OCEANSIDE,2673,214,,33.251537,-117.250614,10890,,,,698306,Mission Vista High School,CA,5875 Jeffries Ranch Rd,SingleFamily,1996,92057,16589065
2.0,3,OCEANSIDE,1396,215,https://photos.zillowstatic.com/p_d/ISahzr1ohaolfh0000000000.jpg,33.247946,-117.257899,9147,,,,469680,Mission Vista High School,CA,1583 Mission Meadows Dr,SingleFamily,1984,92057,16588904
2.0,3,Oceanside,1396,216,https://photos.zillowstatic.com/p_d/ISi3eokndw9jyj0000000000.jpg,33.248351,-117.257674,11000,1,,Garage - Attached,540860,Mission Vista High School,CA,1582 Mission Meadows Dr,SingleFamily,1984,92057,16588899
2.0,3,OCEANSIDE,1796,217,https://photos.zillowstatic.com/p_d/IS1rldma5nd8e41000000000.jpg,33.249932,-117.25754,11467,,,Garage - Attached,538392,Mission Vista High School,CA,5691 Paddock Rd,SingleFamily,1984,92057,16588867
2.0,4,OCEANSIDE,1986,218,https://photos.zillowstatic.com/p_d/IS6ilyol1l2jr90000000000.jpg,33.24555,-117.249544,31798,1,14,"Garage - Attached, Off-street, On-street",661021,Mission Vista High School,CA,1501 Del Mar Rd,SingleFamily,1988,92057,16588777
3.0,4,OCEANSIDE,2483,219,https://photos.zillowstatic.com/p_d/ISmexl9uggxv691000000000.jpg,33.25113,-117.254025,18295,2,,Garage - Attached,641772,Mission Vista High School,CA,5837 Jeffries Ranch Rd,SingleFamily,1979,92057,16588405
3.0,4,OCEANSIDE,2866,220,https://photos.zillowstatic.com/p_d/IS62d15k55jb8f1000000000.jpg,33.244494,-117.248362,10047,2,,"Garage - Attached, Off-street",722297,Mission Vista High School,CA,1485 Belmont Park Rd,SingleFamily,2001,92057,52504624
2.5,4,Oceanside,1565,221,https://photos.zillowstatic.com/p_d/IS6uisv85vvsli0000000000.jpg,33.246685,-117.261603,7501,,,,503129,Mission Vista High School,CA,1644 Arabian Way,SingleFamily,1988,92057,16591190
2.0,4,OCEANSIDE,1959,222,,33.247489,-117.252188,10890,1,8,,613732,Mission Vista High School,CA,1655 Shire Ave,SingleFamily,1999,92057,16592073
2.0,3,CARLSBAD,2147,223,https://photos.zillowstatic.com/p_d/ISqhq9jb9wda4h0000000000.jpg,33.08401,-117.250159,21780,1,5,Garage - Attached,1053530,La Costa Canyon High School,CA,2736 Galicia Way,SingleFamily,1978,92009,16660373
2.0,3,CARLSBAD,2316,224,,33.082608,-117.249743,10890,,,Garage - Attached,1089256,La Costa Canyon High School,CA,2780 Galicia Way,SingleFamily,1985,92009,16660418
3.0,4,CARLSBAD,2434,225,https://photos.zillowstatic.com/p_d/ISi7dqkttdehhn0000000000.jpg,33.081632,-117.249421,10890,2,8,Garage - Attached,980410,La Costa Canyon High School,CA,2844 Levante St,SingleFamily,1985,92009,16660423
2.0,3,Carlsbad,1650,226,https://photos.zillowstatic.com/p_d/IS6eeykbih8cyq1000000000.jpg,33.083872,-117.246588,10000,1,,Garage - Attached,883482,La Costa Canyon High School,CA,7619 Galleon Way,SingleFamily,1977,92009,16660703
2.0,3,CARLSBAD,2156,227,https://photos.zillowstatic.com/p_d/ISmqaodllhj2rk1000000000.jpg,33.083261,-117.246514,10890,1,5,Garage - Attached,937871,La Costa Canyon High School,CA,7626 Cortina Ct,SingleFamily,1978,92009,16660718
3.5,5,CARLSBAD,3000,228,https://photos.zillowstatic.com/p_d/ISm2cpkos3l0qh1000000000.jpg,33.082504,-117.247801,10890,2,,,1086390,La Costa Canyon High School,CA,7647 Primavera Way,SingleFamily,1978,92009,16660731
3.0,4,CARLSBAD,2191,229,https://photos.zillowstatic.com/p_d/ISyf244tc5y3wg1000000000.jpg,33.081549,-117.247083,8038,2,7,Garage - Attached,935499,La Costa Canyon High School,CA,7736 Primavera Way,SingleFamily,1979,92009,16660746
3.0,3,CARLSBAD,2653,230,https://photos.zillowstatic.com/p_d/ISt089jrdpkecj.jpg,33.081156,-117.24461,13447,2,,,1122074,La Costa Canyon High School,CA,3020 Levante St,SingleFamily,1979,92009,16660771
3.0,2,CARLSBAD,1905,231,https://photos.zillowstatic.com/p_d/ISucpk047jyprl1000000000.jpg,33.086426,-117.248131,16552,2,9,Garage - Attached,633840,La Costa Canyon High School,CA,7533 Jerez Ct,Townhouse,1982,92009,16660926
3.0,2,CARLSBAD,1448,232,https://photos.zillowstatic.com/p_d/ISiv7mgbpcdihw1000000000.jpg,33.086302,-117.245231,15119,2,6,,513885,La Costa Canyon High School,CA,7557 Romeria St,Townhouse,1986,92009,16660968
2.0,3,CARLSBAD,2025,233,https://photos.zillowstatic.com/p_d/IS-bmgfs21qw4m5.jpg,33.084933,-117.243221,20255,,,,790778,La Costa Canyon High School,CA,3005 Azahar St,SingleFamily,1980,92009,16675927
3.0,4,CARLSBAD,2236,234,https://photos.zillowstatic.com/p_d/ISadgacgc45c0w0000000000.jpg,33.084884,-117.240026,10890,3,8,"Garage - Attached, Off-street, On-street",923222,La Costa Canyon High School,CA,3205 Azahar Pl,SingleFamily,1976,92009,16675984
2.5,4,CARLSBAD,2122,235,https://photos.zillowstatic.com/p_d/ISugstogr18xzh0000000000.jpg,33.083333,-117.238481,10890,,,,794321,La Costa Canyon High School,CA,3307 La Costa Ave,SingleFamily,1977,92009,16676047
2.5,4,CARLSBAD,2627,236,https://photos.zillowstatic.com/p_d/ISmmbyirr1muc21000000000.jpg,33.08325,-117.243783,10890,,,,970585,La Costa Canyon High School,CA,7621 Romeria St,SingleFamily,1979,92009,16676051
2.0,4,CARLSBAD,2484,237,https://photos.zillowstatic.com/p_d/IS6qndofdnw7s10000000000.jpg,33.08157,-117.242777,10890,2,,,947006,La Costa Canyon High School,CA,7713 Farol Ct,SingleFamily,1975,92009,16676111
2.0,3,CARLSBAD,1453,238,https://photos.zillowstatic.com/p_d/ISat01zg0c96p81000000000.jpg,33.08274,-117.236906,5000,1,7,Garage - Attached,738071,La Costa Canyon High School,CA,3337 Cuesta Pl,SingleFamily,1979,92009,16676514
2.0,3,CARLSBAD,1572,239,https://photos.zillowstatic.com/p_d/ISyvecj5szyuf50000000000.jpg,33.083857,-117.237368,3998,,,,720418,La Costa Canyon High School,CA,3335 Vivienda Cir,SingleFamily,1979,92009,16676519
3.0,4,CARLSBAD,2650,240,,33.087052,-117.234301,10890,2,4,Garage - Attached,1088210,La Costa Canyon High School,CA,3317 Cabo Ct,SingleFamily,1978,92009,16676749
3.0,4,CARLSBAD,2386,241,https://photos.zillowstatic.com/p_d/ISe4wf91eam55k0000000000.jpg,33.085727,-117.233632,9000,,,"Garage - Attached, Off-street",801009,La Costa Canyon High School,CA,3334 Piragua St,SingleFamily,1978,92009,16676907
3.5,4,ESCONDIDO,3288,242,https://photos.zillowstatic.com/p_d/ISa569il3a9glc1000000000.jpg,33.099384,-117.050042,43560,1,,Garage - Attached,775357,Classical Academy High School,CA,2224 Marion Ln,SingleFamily,1978,92025,16703715
2.5,3,ESCONDIDO,4220,243,https://photos.zillowstatic.com/p_d/ISib0zxcy0pq4c1000000000.jpg,33.094492,-117.046096,43560,,,,944288,Classical Academy High School,CA,1178 Orangewood Dr,SingleFamily,1982,92025,16703956
3.0,3,ESCONDIDO,3596,244,https://photos.zillowstatic.com/p_d/IS66sf1sj0bkjp0000000000.jpg,33.089771,-117.048668,43560,2,,,976853,Classical Academy High School,CA,2488 Cross Creek Pl,SingleFamily,1992,92025,16703975
5.0,5,ESCONDIDO,3705,245,https://photos.zillowstatic.com/p_d/ISybf3t4ce7wx20000000000.jpg,33.094718,-117.047074,21780,2,12,Garage - Attached,1019680,Classical Academy High School,CA,1181 Laura Ln,SingleFamily,1997,92025,16704000
4.0,4,ESCONDIDO,4413,246,https://photos.zillowstatic.com/p_d/IS6e648nglz16g0000000000.jpg,33.094565,-117.048372,44866,2,9,Garage - Attached,953329,Classical Academy High School,CA,1121 Laura Ln,SingleFamily,1998,92025,16704006
4.1,5,ESCONDIDO,4839,247,https://photos.zillowstatic.com/p_d/ISi7x956jzwoxo1000000000.jpg,33.094924,-117.050581,53578,2,,,1122288,Classical Academy High School,CA,2302 Canyon Rd,SingleFamily,1993,92025,16704032
4.0,5,ESCONDIDO,4339,248,https://photos.zillowstatic.com/p_d/ISivb520va7ah41000000000.jpg,33.094768,-117.050253,21780,3,13,Garage - Attached,975326,Classical Academy High School,CA,1043 Laura Ln,SingleFamily,1992,92025,16704033
2.0,3,ESCONDIDO,1950,249,https://photos.zillowstatic.com/p_d/IS2b9dhz7mre0t1000000000.jpg,33.092093,-117.059204,39204,,10,Garage - Attached,634138,Classical Academy High School,CA,470 Bear Valley Pkwy,SingleFamily,1958,92025,16705737
3.0,2,ESCONDIDO,2716,250,https://photos.zillowstatic.com/p_d/ISy709cu1h1ra71000000000.jpg,33.083523,-117.040409,60984,1,,"Garage - Attached, Garage - Detached, Off-street",910471,Classical Academy High School,CA,3050 Donee Diego Dr,SingleFamily,1965,92025,16706076
3.0,4,ESCONDIDO,2596,251,,33.080173,-117.038734,21780,2,,Garage - Attached,715281,Classical Academy High School,CA,3215 Don Rolando,SingleFamily,1979,92025,16706084
3.0,4,ESCONDIDO,2523,252,https://photos.zillowstatic.com/p_d/ISec6tcz8pib100000000000.jpg,33.089624,-117.046427,43560,,,,720561,Classical Academy High School,CA,2547 La Serena,SingleFamily,1962,92025,16706118
4.0,4,ESCONDIDO,3728,253,https://photos.zillowstatic.com/p_d/ISeoznt381tvrl1000000000.jpg,33.085912,-117.042993,23958,2,,Garage - Attached,836045,Classical Academy High School,CA,2655 Rosehill Rd,SingleFamily,1973,92025,16706172
2.0,2,ESCONDIDO,1836,254,https://photos.zillowstatic.com/p_d/ISek8wubm3xtdp1000000000.jpg,33.085597,-117.043126,19166,1,,,627173,Classical Academy High School,CA,2738 Anaheim St,SingleFamily,1980,92025,16706173
2.5,4,ESCONDIDO,2045,255,https://photos.zillowstatic.com/p_d/ISahr5raslo7lg1000000000.jpg,33.088194,-117.047785,21780,1,,,626982,Classical Academy High School,CA,1109 Mary Lane Ct,SingleFamily,1973,92025,16706204
3.0,3,ESCONDIDO,3608,256,https://photos.zillowstatic.com/p_d/ISmyk9z227xajs1000000000.jpg,33.080399,-117.051582,47480,1,,Garage - Attached,882263,Classical Academy High School,CA,2417 Haas St,SingleFamily,1990,92025,16706280
3.0,4,ESCONDIDO,1900,257,https://photos.zillowstatic.com/p_d/ISuo2z9rxe0o1b0000000000.jpg,33.083399,-117.047064,21780,2,11,,644654,Classical Academy High School,CA,3110 Mary Ln,SingleFamily,1963,92025,16706307
2.0,3,ESCONDIDO,2464,258,https://photos.zillowstatic.com/p_d/ISm6ve0ym356tf0000000000.jpg,33.083005,-117.04721,32670,,,"Carport, Off-street",700691,Classical Academy High School,CA,3140 Mary Ln,SingleFamily,1956,92025,16706308
4.0,4,ESCONDIDO,3520,259,https://photos.zillowstatic.com/p_d/ISyfqmij5edo2h0000000000.jpg,33.084958,-117.042161,43560,2,10,,807746,Classical Academy High School,CA,3015 Colley Ln,SingleFamily,1979,92025,16706348
4.0,4,ESCONDIDO,3900,260,https://photos.zillowstatic.com/p_d/ISewxjr0lojoxr0000000000.jpg,33.083238,-117.045711,44431,2,9,Garage - Attached,1013599,Classical Academy High School,CA,2624 Puebla St,SingleFamily,2004,92025,16706358
2.5,4,San Diego,1998,261,https://photos.zillowstatic.com/p_d/ISqxurowhmjbhx0000000000.jpg,32.926107,-117.075714,7501,,,,860643,Scripps Ranch High School,CA,11316 Pepperview Ter,SingleFamily,2000,92131,16826426
2.5,3,SAN DIEGO,1750,262,https://photos.zillowstatic.com/p_d/ISap5io6asm6s50000000000.jpg,32.936076,-117.071169,4791,,,,759901,Scripps Ranch High School,CA,11939 Briarleaf Way,SingleFamily,1996,92128,16812196
3.0,5,SAN DIEGO,3262,263,https://photos.zillowstatic.com/p_d/ISi36mhldj6vod1000000000.jpg,32.938139,-117.076279,7753,2,,Garage - Attached,1085763,Scripps Ranch High School,CA,11848 Treewind Ct,SingleFamily,1996,92128,16812330
3.0,5,SAN DIEGO,2131,264,https://photos.zillowstatic.com/p_d/ISy7saww7zz2ni1000000000.jpg,32.940438,-117.073272,7501,,,,875876,Scripps Ranch High School,CA,11981 Alpine Ter,SingleFamily,1994,92128,16812720
2.5,4,SAN DIEGO,1794,265,https://photos.zillowstatic.com/p_d/ISusxl7q5u5tnt1000000000.jpg,32.940073,-117.073751,8226,,,Garage - Attached,776565,Scripps Ranch High School,CA,11959 Alpine Ter,SingleFamily,1994,92128,16812724
3.0,3,SAN DIEGO,1750,266,https://photos.zillowstatic.com/p_d/ISm67on75o1fkq0000000000.jpg,32.940513,-117.074083,7501,2,,Garage - Attached,753546,Scripps Ranch High School,CA,11950 Alpine Ter,SingleFamily,1994,92128,16812726
4.5,5,SAN DIEGO,4093,267,,32.937196,-117.068345,7501,,,,1106827,Scripps Ranch High School,CA,12021 Oakview Way,SingleFamily,1999,92128,16812754
3.5,5,SAN DIEGO,3073,268,https://photos.zillowstatic.com/p_d/ISatojt3t45khl1000000000.jpg,32.937644,-117.068492,7501,2,,,1032437,Scripps Ranch High School,CA,12041 Oakview Way,SingleFamily,1998,92128,16812757
3.0,4,SAN DIEGO,2864,269,https://photos.zillowstatic.com/p_d/ISmmrav91wvwx31000000000.jpg,32.936898,-117.074064,9104,,7,,923804,Scripps Ranch High School,CA,11964 Caneridge Pl,SingleFamily,1996,92128,16812812
3.5,5,SAN DIEGO,3152,270,https://photos.zillowstatic.com/p_d/ISifzsndh6253r1000000000.jpg,32.935629,-117.075082,6534,,,,988284,Scripps Ranch High School,CA,11909 Acacia Glen Ct,SingleFamily,1997,92128,16812840
3.0,5,SAN DIEGO,2919,271,https://photos.zillowstatic.com/p_d/ISqtvdnpe7wssq0000000000.jpg,32.920431,-117.066869,10890,1,,Garage - Attached,984094,Scripps Ranch High School,CA,10875 Pinot Noir Cir,SingleFamily,1978,92131,16821268
2.5,4,SAN DIEGO,1984,272,https://photos.zillowstatic.com/p_d/ISmio1b4hho2zb1000000000.jpg,32.923448,-117.071963,7501,2,,Garage - Attached,857740,Scripps Ranch High School,CA,11016 Elderwood Ln,SingleFamily,1986,92131,16822533
3.0,4,SAN DIEGO,2225,273,https://photos.zillowstatic.com/p_d/ISq5x6ctbju2jf0000000000.jpg,32.921743,-117.074531,7501,2,8,,871646,Scripps Ranch High School,CA,10789 Elderwood Ln,SingleFamily,1986,92131,16822561
2.5,4,SAN DIEGO,2927,274,https://photos.zillowstatic.com/p_d/ISqdrriqkykn3j0000000000.jpg,32.931768,-117.079334,7501,,,,1041360,Scripps Ranch High School,CA,11646 Alderhill Ter,SingleFamily,1999,92131,16825153
3.0,4,SAN DIEGO,2753,275,https://photos.zillowstatic.com/p_d/IS27ar5buode1y0000000000.jpg,32.9313,-117.078934,7501,2,8,Garage - Attached,962298,Scripps Ranch High School,CA,11668 Alderhill Ter,SingleFamily,2000,92131,16825171
4.0,5,SAN DIEGO,3237,276,https://photos.zillowstatic.com/p_d/IS6az3o8jb2fnt0000000000.jpg,32.930559,-117.077884,10890,2,15,Garage - Attached,1094725,Scripps Ranch High School,CA,11720 Alderhill Ter,SingleFamily,2000,92131,16825191
2.5,4,San Diego,2523,277,https://photos.zillowstatic.com/p_d/ISinxwjeep9l7w0000000000.jpg,32.933936,-117.073835,7501,,,,929730,Scripps Ranch High School,CA,11885 Candy Rose Way,SingleFamily,1999,92131,16825507
3.0,7,SAN DIEGO,3269,278,https://photos.zillowstatic.com/p_d/ISegdpp1pgahyi1000000000.jpg,32.931789,-117.073075,8755,2,,Garage - Attached,1139947,Scripps Ranch High School,CA,11736 Angelique St,SingleFamily,1997,92131,16825537
2.0,3,Escondido,1450,279,https://photos.zillowstatic.com/p_d/ISyfu9ju1dy0hq1000000000.jpg,33.124245,-117.058469,10890,,,,464819,Escondido Charter High School,CA,691 Boyle Ave,SingleFamily,1975,92027,16693081
2.0,3,ESCONDIDO,1408,280,https://photos.zillowstatic.com/p_d/ISus5shkrb8gnc1000000000.jpg,33.123072,-117.067387,7492,1,6,"Carport, Garage - Detached",458580,Escondido Charter High School,CA,951 E 4th Ave,SingleFamily,1925,92025,16692732
2.0,3,ESCONDIDO,1808,281,https://photos.zillowstatic.com/p_d/ISeoz7dcv8cdku1000000000.jpg,33.124862,-117.064904,7501,1,5,,514243,Escondido Charter High School,CA,1151 E 3rd Ave,SingleFamily,1955,92025,16692808
2.0,3,ESCONDIDO,1082,282,https://photos.zillowstatic.com/p_d/ISecmtf6m7joum1000000000.jpg,33.12435,-117.065025,7501,,,,429151,Escondido Charter High School,CA,1132 E 4th Ave,SingleFamily,1957,92025,16692813
2.0,3,ESCONDIDO,2072,283,https://photos.zillowstatic.com/p_d/ISmiolyruqf31l1000000000.jpg,33.121774,-117.065453,12100,1,8,,549019,Escondido Charter High School,CA,1023 Circle Dr,SingleFamily,1965,92025,16692917
3.0,4,ESCONDIDO,2554,284,,33.121442,-117.066465,12632,3,8,Garage - Attached,634712,Escondido Charter High School,CA,945 Halecrest Dr,SingleFamily,1986,92025,16692918
3.0,4,ESCONDIDO,2400,285,https://photos.zillowstatic.com/p_d/ISegxws0jl1ahl1000000000.jpg,33.121299,-117.066229,9136,2,,Garage - Attached,615278,Escondido Charter High School,CA,1116 Circle Dr,SingleFamily,1981,92025,16692919
4.0,5,ESCONDIDO,2776,286,https://photos.zillowstatic.com/p_d/ISekcrlo3tshr01000000000.jpg,33.121496,-117.060246,10890,,,,557732,Escondido Charter High School,CA,826 Birch Ave,SingleFamily,1959,92027,16693086
2.0,3,ESCONDIDO,1350,287,,33.121257,-117.060077,16552,,,Garage - Attached,458044,Escondido Charter High School,CA,836 Birch Ave,SingleFamily,1959,92027,16693087
3.0,4,ESCONDIDO,2741,288,,33.119653,-117.058323,31799,1,,"Garage - Detached, Off-street",708369,Escondido Charter High School,CA,1126 Birch Ave,SingleFamily,1964,92027,16693099
3.0,3,ESCONDIDO,2030,289,https://photos.zillowstatic.com/p_d/IS2vg4377g8yhf1000000000.jpg,33.121653,-117.057968,10890,2,70,,591857,Escondido Charter High School,CA,1322 Loma De Paz,SingleFamily,1977,92027,16693112
2.0,4,ESCONDIDO,1523,290,https://photos.zillowstatic.com/p_d/ISu8aqfarxh3uh1000000000.jpg,33.125124,-117.050604,10890,1,,,487400,Escondido Charter High School,CA,930 S Rose St,SingleFamily,1973,92027,16693232
2.0,3,ESCONDIDO,1333,291,https://photos.zillowstatic.com/p_d/ISibcwzpzfd1k30000000000.jpg,33.124454,-117.050181,7400,1,,Garage - Attached,481389,Escondido Charter High School,CA,1030 S Rose St,SingleFamily,1973,92027,16693236
2.0,3,ESCONDIDO,1404,292,https://photos.zillowstatic.com/p_d/ISaxzqdmwscsv20000000000.jpg,33.122324,-117.055396,7501,1,,,516162,Escondido Charter High School,CA,1410 Boyle Ave,SingleFamily,1973,92027,16693277
2.0,4,ESCONDIDO,1836,293,https://photos.zillowstatic.com/p_d/IS2f05gzbb77ch1000000000.jpg,33.122554,-117.055209,10890,2,8,,568795,Escondido Charter High School,CA,1421 Jeffrey Pl,SingleFamily,1973,92027,16693283
2.0,3,ESCONDIDO,1726,294,https://photos.zillowstatic.com/p_d/ISq9s18wjium6l0000000000.jpg,33.123008,-117.05495,15246,1,,,551942,Escondido Charter High School,CA,1420 Jeffrey Pl,SingleFamily,1974,92027,16693285
2.0,3,ESCONDIDO,1280,295,https://photos.zillowstatic.com/p_d/ISij2yw7aa425k1000000000.jpg,33.12439,-117.053741,13699,10,10,Garage - Attached,480608,Escondido Charter High School,CA,1561 Kenora St,SingleFamily,1973,92027,16693298
2.0,3,ESCONDIDO,2064,296,https://photos.zillowstatic.com/p_d/IS2nuln62ex1y01000000000.jpg,33.126247,-117.057221,10890,1,8,"Garage - Attached, Off-street, On-street",520842,Escondido Charter High School,CA,509 Mclain St,SingleFamily,1974,92027,16693373
2.0,3,ESCONDIDO,1770,297,https://photos.zillowstatic.com/p_d/ISu005a1slwqgr0000000000.jpg,33.12308,-117.056948,10890,1,5,Garage - Attached,488016,Escondido Charter High School,CA,826 Boyle Ave,SingleFamily,1972,92027,16693394
2.0,3,ESCONDIDO,1532,298,https://photos.zillowstatic.com/p_d/ISmet6f9jjydnf0000000000.jpg,33.124149,-117.056709,7501,1,,,493217,Escondido Charter High School,CA,1443 Kenora St,SingleFamily,1974,92027,16693408
3.0,4,Poway,2687,299,https://photos.zillowstatic.com/p_d/IS62xwug3vqdvk1000000000.jpg,32.977196,-117.038036,11000,2,9,Garage - Attached,919821,Poway High School,CA,14462 Kentfield Pl,SingleFamily,2001,92064,52512688
2.0,3,Poway,1350,300,https://photos.zillowstatic.com/p_d/ISustq01ksmmji1000000000.jpg,32.979708,-117.037072,10890,,,,654167,Poway High School,CA,13530 Orange Blossom Ln,SingleFamily,1971,92064,16802207
2.0,4,POWAY,1674,301,https://photos.zillowstatic.com/p_d/ISu4bw525lte3o1000000000.jpg,32.993102,-117.025599,21780,,,,811918,Poway High School,CA,15408 Espola Rd,SingleFamily,1977,92064,16749483
3.0,4,POWAY,1900,302,https://photos.zillowstatic.com/p_d/ISql1lay7k8s631000000000.jpg,32.973073,-117.040073,10890,1,8,"Garage - Attached, Garage - Detached, Off-street",760004,Poway High School,CA,14309 Old Community Rd,SingleFamily,1976,92064,16801453
2.0,4,POWAY,1392,303,https://photos.zillowstatic.com/p_d/ISaptwfoh36kld1000000000.jpg,32.974575,-117.038009,7840,,,Garage - Attached,658008,Poway High School,CA,14364 Sycamore Ave,SingleFamily,1976,92064,16801495
2.0,4,POWAY,2533,304,https://photos.zillowstatic.com/p_d/ISucd3va3s8f310000000000.jpg,32.977306,-117.040247,17862,1,,Garage - Attached,774167,Poway High School,CA,14528 Victoria Estates Ln,SingleFamily,1975,92064,16801572
2.0,3,POWAY,1900,305,https://photos.zillowstatic.com/p_d/ISqhes9vsqr8280000000000.jpg,32.974964,-117.037645,21780,1,6,"Garage - Attached, Off-street",769909,Poway High School,CA,14400 Gaslight Ct,SingleFamily,1970,92064,16801591
2.0,3,POWAY,1530,306,https://photos.zillowstatic.com/p_d/ISuwgrj704qw021000000000.jpg,32.969861,-117.038668,22215,,,,595753,Poway High School,CA,14135 York Ave,SingleFamily,1961,92064,16801609
3.0,4,POWAY,1685,307,https://photos.zillowstatic.com/p_d/ISiv3nag0koy1h1000000000.jpg,32.970908,-117.039906,21780,1,,,754088,Poway High School,CA,13425 Aubrey St,SingleFamily,1980,92064,16801611
2.0,3,POWAY,1296,308,,32.968559,-117.03716,11891,,,,626351,Poway High School,CA,14035 Sycamore Ave,SingleFamily,1974,92064,16801618
2.0,4,POWAY,1642,309,https://photos.zillowstatic.com/p_d/IS6yl1sbz87f2b0000000000.jpg,32.96861,-117.037989,13503,1,7,Off-street,656722,Poway High School,CA,14040 Sycamore Ave,SingleFamily,1958,92064,16801660
2.0,4,POWAY,1261,310,https://photos.zillowstatic.com/p_d/IS6yxem9gvfwnw0000000000.jpg,32.968307,-117.032202,10890,1,6,Garage - Attached,609947,Poway High School,CA,14033 Eastern St,SingleFamily,1971,92064,16801679
4.0,4,POWAY,2890,311,https://photos.zillowstatic.com/p_d/ISybrwzujjf56k0000000000.jpg,32.964151,-117.032358,10890,,,,876938,Poway High School,CA,13723 Janette Ln,SingleFamily,1992,92064,16801810
2.0,4,POWAY,1748,312,,32.963923,-117.035677,7823,,7,,764942,Poway High School,CA,13611 Janette Ln,SingleFamily,1981,92064,16801819
3.0,4,POWAY,2594,313,https://photos.zillowstatic.com/p_d/ISe8baqz2jdivv1000000000.jpg,32.964697,-117.035652,7501,2,,,830842,Poway High School,CA,13611 Somerset Rd,SingleFamily,1991,92064,16801826
2.0,4,POWAY,2202,314,https://photos.zillowstatic.com/p_d/ISirk1q94icxrh0000000000.jpg,32.978623,-117.037753,10890,1,6,Garage - Attached,757018,Poway High School,CA,13533 Maryearl Ln,SingleFamily,1971,92064,16802259
2.0,4,POWAY,1949,315,https://photos.zillowstatic.com/p_d/ISa5ak1flu4hbl1000000000.jpg,32.969538,-117.041022,10220,1,,Garage - Attached,779326,Poway High School,CA,14103 Kendra Way,SingleFamily,1976,92064,16802505
2.0,3,POWAY,2230,316,https://photos.zillowstatic.com/p_d/IS2r12g665r8ca1000000000.jpg,32.971659,-117.040851,7501,1,9,"Garage - Attached, Off-street, On-street",769436,Poway High School,CA,14213 Kendra Way,SingleFamily,1973,92064,16802564
2.0,4,POWAY,1605,317,https://photos.zillowstatic.com/p_d/IStoad2pkm6x070000000000.jpg,32.971653,-117.041654,7501,1,9,Garage - Attached,671095,Poway High School,CA,13343 Lingre Ave,SingleFamily,1985,92064,16802599
3.0,3,POWAY,1795,318,https://photos.zillowstatic.com/p_d/ISmut5ztobcvmk1000000000.jpg,32.981594,-117.038907,14723,1,9,"Garage - Attached, On-street",734283,Poway High School,CA,13424 Orange Blossom Ln,SingleFamily,1973,92064,16802805
3.0,3,LA MESA,2558,319,https://photos.zillowstatic.com/p_d/ISiji2b6zziew20000000000.jpg,32.763486,-117.007732,21780,1,,"Garage - Detached, On-street",821883,Helix High School,CA,4620 Panorama Dr,SingleFamily,1942,91941,17034149
2.0,3,LA MESA,1250,320,https://photos.zillowstatic.com/p_d/ISy31b3w876nt81000000000.jpg,32.761687,-117.008199,10890,1,,Garage - Attached,588226,Helix High School,CA,4461 Scenic Ln,SingleFamily,1954,91941,17034175
2.0,4,LA MESA,2150,321,https://photos.zillowstatic.com/p_d/ISinh08nm2qhbb1000000000.jpg,32.758763,-117.008484,12196,,,,661813,Helix High School,CA,4320 Panorama Dr,SingleFamily,1971,91941,17034227
3.5,4,LA MESA,3172,322,,32.762856,-117.00445,7840,2,,Garage - Attached,747916,Helix High School,CA,4630 Skyline Ln,SingleFamily,2004,91941,17034530
5.0,4,LA MESA,4412,323,https://photos.zillowstatic.com/p_d/ISijmh9aumh7sj1000000000.jpg,32.761659,-116.99564,24829,2,5,Garage - Attached,1185183,Helix High School,CA,9375 Lavell St,SingleFamily,1970,91941,17035154
3.0,4,LA MESA,2166,324,https://photos.zillowstatic.com/p_d/ISeona31ua647r0000000000.jpg,32.761443,-116.996813,16552,,,,712176,Helix High School,CA,9325 Lavell St,SingleFamily,1945,91941,17035155
3.0,4,LA MESA,1780,325,https://photos.zillowstatic.com/p_d/IS5253d9dcmhrf1000000000.jpg,32.763765,-117.000421,15681,2,9,"Carport, Garage - Attached",640166,Helix High School,CA,9151 Golondrina Dr,SingleFamily,1968,91941,17035266
3.0,4,LA MESA,3025,326,,32.756985,-117.004736,22651,2,8,Garage - Attached,837855,Helix High School,CA,4282 Merritt Blvd,SingleFamily,1981,91941,17038651
4.0,5,LA MESA,3016,327,https://photos.zillowstatic.com/p_d/ISqlh1mab0vh1m1000000000.jpg,32.757578,-117.002127,10890,2,,"Garage - Detached, Off-street",828775,Helix High School,CA,4331 Woodland Dr,SingleFamily,1970,91941,17038654
2.0,3,LA MESA,1810,328,https://photos.zillowstatic.com/p_d/IS2vwcwzsmfm0k1000000000.jpg,32.755992,-117.001031,21780,1,6,Off-street,625064,Helix High School,CA,4220 Bancroft Dr,SingleFamily,1948,91941,17038694
3.0,4,LA MESA,2318,329,https://photos.zillowstatic.com/p_d/IS23fgtkcqdri61000000000.jpg,32.758595,-116.998114,10890,1,,Garage - Attached,739373,Helix High School,CA,9230 Tropico Dr,SingleFamily,1951,91941,17038729
2.0,3,LA MESA,1749,330,https://photos.zillowstatic.com/p_d/ISuw42kpa5eg120000000000.jpg,32.75593,-117.001853,10890,,,,665779,Helix High School,CA,4233 Woodland Dr,SingleFamily,1978,91941,17038756
3.0,3,LA MESA,2039,331,https://photos.zillowstatic.com/p_d/ISizqboayqj2cs1000000000.jpg,32.753428,-117.004802,21780,2,8,Garage - Attached,683395,Helix High School,CA,4125 Merritt Blvd,SingleFamily,1954,91941,17038767
3.0,3,LA MESA,3110,332,https://photos.zillowstatic.com/p_d/ISq5h26tmwwd0s0000000000.jpg,32.753231,-117.003854,41817,,,Garage - Attached,731840,Helix High School,CA,9008 Terrace Dr,SingleFamily,1980,91941,17038769
3.0,5,LA MESA,2953,333,https://photos.zillowstatic.com/p_d/ISircfvsi2t0r40000000000.jpg,32.752541,-117.004403,21780,2,8,Garage - Attached,725196,Helix High School,CA,8955 Terrace Dr,SingleFamily,1965,91941,17038782
3.0,3,SPRING VALLEY,1684,334,https://photos.zillowstatic.com/p_d/ISdcmxi7cc8cxs1000000000.jpg,32.754091,-117.000976,12500,1,8,"Garage - Detached, On-street",583181,Helix High School,CA,4122 Citradora Dr,SingleFamily,1950,91977,17038951
2.0,3,SPRING VALLEY,1600,335,https://photos.zillowstatic.com/p_d/ISal2pwhqq3kby0000000000.jpg,32.75509,-116.997744,10890,1,,Garage - Attached,602316,Helix High School,CA,9257 Brookside Ct,SingleFamily,1950,91977,17039007
3.0,3,SPRING VALLEY,1807,336,https://photos.zillowstatic.com/p_d/ISa9lvs53gto0a1000000000.jpg,32.754812,-116.997916,9901,2,,,597445,Helix High School,CA,9259 Brookside Cir,SingleFamily,1950,91977,17039008
2.0,3,SPRING VALLEY,1479,337,https://photos.zillowstatic.com/p_d/IS2zn4nhla74w81000000000.jpg,32.752921,-116.999123,10200,,5,"Garage - Attached, Off-street",550812,Helix High School,CA,9281 Carthay Cir,SingleFamily,1950,91977,17039037
4.0,5,Chula Vista,3500,338,,32.6134,-116.9955,3500,2,5,"Garage - Attached, On-street",719633,Olympian High School,CA,1842 Santa Christina Ave,SingleFamily,2018,91913,241609853
2.5,3,CHULA VISTA,1643,339,https://photos.zillowstatic.com/p_d/IS66svptxuz72a0000000000.jpg,32.624386,-116.99071,3998,2,,,521776,Olympian High School,CA,1514 Piedmont St,SingleFamily,2000,91913,17185349
2.5,3,CHULA VISTA,1613,340,https://photos.zillowstatic.com/p_d/ISyvq17yxs94s20000000000.jpg,32.624316,-116.990787,3998,2,,,515071,Olympian High School,CA,1510 Piedmont St,SingleFamily,2000,91913,17185350
3.0,3,CHULA VISTA,1649,341,https://photos.zillowstatic.com/p_d/ISewhzc3w99o9p1000000000.jpg,32.62547,-116.991253,2968,2,3,"Garage - Attached, On-street",509846,Olympian High School,CA,1533 Gold Run Rd,SingleFamily,2001,91913,17185393
2.5,3,CHULA VISTA,1628,342,,32.625991,-116.992145,3084,2,6,"Garage - Attached, Off-street, On-street",516512,Olympian High School,CA,1349 Coalinga Pl,SingleFamily,2001,91913,17185430
2.5,3,CHULA VISTA,1643,343,,32.625805,-116.99187,4356,2,,,522635,Olympian High School,CA,1363 Coalinga Pl,SingleFamily,2001,91913,17185433
2.5,3,Chula Vista,1790,344,https://photos.zillowstatic.com/p_d/ISapxzo0h3ke3l1000000000.jpg,32.616509,-116.999027,3998,,,,554557,Olympian High School,CA,1287 Cathedral Oaks Rd,SingleFamily,2015,91913,121039872
2.5,3,Chula Vista,1917,345,https://photos.zillowstatic.com/p_d/ISinxckdm6j03n0000000000.jpg,32.615352,-116.994713,3898,,7,,564640,Olympian High School,CA,1356 Pershing Rd,SingleFamily,2012,91913,102972211
2.5,3,CHULA VISTA,1615,346,https://photos.zillowstatic.com/p_d/ISyf2wxq8r1dro0000000000.jpg,32.625394,-116.991325,3998,,,,494429,Olympian High School,CA,1527 Gold Run Rd,SingleFamily,2001,91913,52523235
2.5,3,CHULA VISTA,1649,347,https://photos.zillowstatic.com/p_d/IS6id0ltjrqk2q0000000000.jpg,32.625241,-116.991929,10890,2,,,522699,Olympian High School,CA,1508 Westmorland St,SingleFamily,2001,91913,52523236
3.0,3,CHULA VISTA,1549,348,,32.621192,-116.999799,4992,2,,,521063,Olympian High School,CA,1353 Fieldbrook St,SingleFamily,2002,91913,54053250
3.0,3,CHULA VISTA,1598,349,https://photos.zillowstatic.com/p_d/ISuom6taqmkvit1000000000.jpg,32.621369,-116.997652,3350,2,,"Garage - Attached, Off-street",517606,Olympian High School,CA,1401 Fieldbrook St,SingleFamily,2002,91913,54483659
2.5,3,CHULA VISTA,1408,350,,32.621395,-116.997536,3998,,,,499226,Olympian High School,CA,1405 Fieldbrook St,SingleFamily,2002,91913,54484159
3.0,4,CHULA VISTA,2407,351,,32.619707,-116.99855,6250,,,,631776,Olympian High School,CA,1417 Carneros Valley St,SingleFamily,2002,91913,54704847
3.5,5,CHULA VISTA,2500,352,https://photos.zillowstatic.com/p_d/ISuwoti6nftibg0000000000.jpg,32.619338,-116.998221,4791,,,,639774,Olympian High School,CA,1422 Carneros Valley St,SingleFamily,2002,91913,54907639
3.5,5,Chula Vista,2500,353,https://photos.zillowstatic.com/p_d/ISmmbqcdyx57ew0000000000.jpg,32.61898,-116.999507,7501,,,,646327,Olympian High School,CA,1409 Weaverville St,SingleFamily,2003,91913,54907663
4.0,5,CHULA VISTA,2500,354,,32.618568,-116.998873,7501,2,,Garage - Attached,644884,Olympian High School,CA,1424 Weaverville St,SingleFamily,2002,91913,54907669
3.5,5,CHULA VISTA,2500,355,,32.618774,-117.001315,4791,2,,,633627,Olympian High School,CA,1371 Pearson Springs Ct,SingleFamily,2003,91913,54907686
3.0,5,San Diego,2383,356,,32.851698,-117.211562,7100,,,Garage - Attached,991334,University City High School,CA,3521 Stetson Ave,SingleFamily,1965,92122,16844342
2.0,3,SAN DIEGO,1288,357,https://photos.zillowstatic.com/p_d/ISeciudeyib9av0000000000.jpg,32.844897,-117.217396,16552,1,,"Garage - Attached, Off-street",800249,University City High School,CA,3151 Carnegie Pl,SingleFamily,1963,92122,17191650
3.0,4,San Diego,2286,358,,32.86896,-117.209258,7400,2,,Garage - Attached,1068958,University City High School,CA,8984 Montrose Way,SingleFamily,1978,92122,16836704
2.0,3,SAN DIEGO,1468,359,https://photos.zillowstatic.com/p_d/ISir8sudbuzhh30000000000.jpg,32.853305,-117.218862,7501,,,,785746,University City High School,CA,3146 Briand Ave,SingleFamily,1962,92122,16841991
2.0,3,SAN DIEGO,1440,360,https://photos.zillowstatic.com/p_d/ISe4cwo8sqken40000000000.jpg,32.852161,-117.218525,8100,1,8,Garage - Attached,791750,University City High School,CA,3139 Ducommun Ave,SingleFamily,1963,92122,16842040
2.0,3,SAN DIEGO,1909,361,https://photos.zillowstatic.com/p_d/ISirwynfxaausk1000000000.jpg,32.852511,-117.219161,6534,1,6,,832809,University City High School,CA,3118 Ducommun Ave,SingleFamily,1963,92122,16842048
2.0,4,SAN DIEGO,1564,362,https://photos.zillowstatic.com/p_d/ISma6um3kw1y7g0000000000.jpg,32.852634,-117.217622,7501,1,8,Garage - Attached,862029,University City High School,CA,3174 Ducommun Ave,SingleFamily,1963,92122,16842064
3.0,4,SAN DIEGO,1800,363,https://photos.zillowstatic.com/p_d/IS6ypk95a9idac0000000000.jpg,32.851632,-117.224915,9500,1,7,"Garage - Attached, On-street",936688,University City High School,CA,2879 Angell Ave,SingleFamily,1964,92122,16842080
3.0,4,SAN DIEGO,2281,364,https://photos.zillowstatic.com/p_d/ISijawwkt15w691000000000.jpg,32.851905,-117.225955,10890,2,,,984150,University City High School,CA,2831 Angell Ave,SingleFamily,1964,92122,16842112
3.0,4,SAN DIEGO,2266,365,,32.851264,-117.226267,6098,2,,,1073825,University City High School,CA,6191 Arnoldson Ct,SingleFamily,1969,92122,16842127
3.0,4,SAN DIEGO,2120,366,https://photos.zillowstatic.com/p_d/ISusd6mvgpsxjv1000000000.jpg,32.85147,-117.224206,7501,,,,1034190,University City High School,CA,6232 Stresemann St,SingleFamily,1977,92122,16842154
3.0,4,SAN DIEGO,2800,367,https://photos.zillowstatic.com/p_d/ISa9dxwvgvfiho0000000000.jpg,32.858586,-117.223386,5369,2,4,Garage - Attached,1187337,University City High School,CA,4226 Caminito Terviso,SingleFamily,1985,92122,16842433
3.0,3,SAN DIEGO,1800,368,https://photos.zillowstatic.com/p_d/ISmaahbh6mtj0d0000000000.jpg,32.856854,-117.226024,7501,,,,1002160,University City High School,CA,4005 Caminito Terviso,SingleFamily,1988,92122,16842511
3.0,4,SAN DIEGO,2439,369,https://photos.zillowstatic.com/p_d/ISqdnsc7xikwrh1000000000.jpg,32.856039,-117.227468,6211,2,11,"Garage - Attached, Off-street, On-street",1156212,University City High School,CA,3906 Caminito Cassis,SingleFamily,1988,92122,16842541
3.0,3,SAN DIEGO,1630,370,,32.858925,-117.227925,3998,2,,Garage - Detached,869864,University City High School,CA,7245 Caminito Pantoja,SingleFamily,1988,92122,16843072
3.0,3,San Diego,1323,371,https://photos.zillowstatic.com/p_d/ISyfuloi91wjha1000000000.jpg,32.85778,-117.228491,3998,,,,817124,University City High School,CA,7133 Caminito Quintana,SingleFamily,1987,92122,16843096
3.0,3,SAN DIEGO,1630,372,https://photos.zillowstatic.com/p_d/ISu8ywsby5angt0000000000.jpg,32.858911,-117.22875,3998,2,6,,862753,University City High School,CA,3951 Caminito Silvela,SingleFamily,1988,92122,16843126
2.0,2,SAN MARCOS,1654,373,https://photos.zillowstatic.com/p_d/ISuc592ynee9ea1000000000.jpg,33.123936,-117.196956,10890,1,,,651917,San Marcos High School,CA,1059 La Reina Dr,SingleFamily,1965,92078,16670963
2.0,2,SAN MARCOS,1700,374,https://photos.zillowstatic.com/p_d/ISi36iqdq53xef0000000000.jpg,33.122296,-117.198353,7501,1,9,Garage - Attached,700724,San Marcos High School,CA,1109 San Pablo Dr,SingleFamily,1966,92078,16671034
3.0,4,SAN MARCOS,1794,375,https://photos.zillowstatic.com/p_d/ISa992ed81ivwl1000000000.jpg,33.126558,-117.194148,7501,2,10,Garage - Attached,626161,San Marcos High School,CA,1001 Wren Way,SingleFamily,1978,92078,16671495
3.0,4,SAN MARCOS,1794,376,,33.126088,-117.194438,5227,,,Garage - Attached,598625,San Marcos High School,CA,1006 Wren Way,SingleFamily,1978,92078,16671500
3.0,4,SAN MARCOS,1974,377,https://photos.zillowstatic.com/p_d/ISm2sde8c0l2b70000000000.jpg,33.126951,-117.192369,7501,2,8,Garage - Attached,626301,San Marcos High School,CA,1001 Mockingbird Ln,SingleFamily,1974,92078,16671812
3.0,4,SAN MARCOS,1794,378,https://photos.zillowstatic.com/p_d/ISah3jtmp2w12h0000000000.jpg,33.12471,-117.1931,4700,2,9,Garage - Attached,599569,San Marcos High School,CA,1115 Pheasant Ct,SingleFamily,1977,92078,16671836
3.0,4,San Marcos,1838,379,https://photos.zillowstatic.com/p_d/ISad8op1msxstd1000000000.jpg,33.124864,-117.193106,4700,2,11,"Garage - Attached, Off-street",632518,San Marcos High School,CA,1109 Pheasant Ct,SingleFamily,1978,92078,16671837
2.5,3,SAN MARCOS,1630,380,https://photos.zillowstatic.com/p_d/ISqlpz96pugho00000000000.jpg,33.129147,-117.188002,7501,2,,"Garage - Attached, Off-street",606134,San Marcos High School,CA,733 Crestview Ct,SingleFamily,1988,92078,16672190
2.0,2,SAN MARCOS,1116,381,https://photos.zillowstatic.com/p_d/ISyz9zkzeot92g1000000000.jpg,33.127696,-117.186569,7501,1,,,495008,San Marcos High School,CA,811 Applewilde Dr,SingleFamily,1986,92078,16672202
3.0,4,San Marcos,2118,382,https://photos.zillowstatic.com/p_d/ISy7c6unm0elr30000000000.jpg,33.127518,-117.186075,7501,2,8,Garage - Attached,679308,San Marcos High School,CA,821 Applewilde Dr,SingleFamily,1993,92078,16672230
2.0,3,SAN MARCOS,1482,383,https://photos.zillowstatic.com/p_d/ISq9w8oceuopo40000000000.jpg,33.126488,-117.189689,7501,1,7,Garage - Attached,584517,San Marcos High School,CA,984 Gardenia Ct,SingleFamily,1994,92078,16672541
3.0,4,SAN MARCOS,1905,384,https://photos.zillowstatic.com/p_d/IS2zzxpk05f9ri0000000000.jpg,33.124989,-117.189021,7501,,,,637386,San Marcos High School,CA,1005 Honeysuckle Dr,SingleFamily,1993,92078,16672575
3.0,4,SAN MARCOS,2687,385,https://photos.zillowstatic.com/p_d/ISqdbfqve4h3400000000000.jpg,33.126099,-117.183331,7501,2,10,"Garage - Attached, Off-street, On-street",789791,San Marcos High School,CA,792 Windridge Cir,SingleFamily,1995,92078,16672677
2.5,3,San Marcos,2363,386,https://photos.zillowstatic.com/p_d/ISmycjhdbm1jfm0000000000.jpg,33.11918,-117.196407,10890,,,,843017,San Marcos High School,CA,1224 San Pablo Dr,SingleFamily,1969,92078,16673943
2.0,3,SAN MARCOS,1988,387,https://photos.zillowstatic.com/p_d/ISijm5w3vwty3w1000000000.jpg,33.119843,-117.195895,9600,1,,"Garage - Attached, Off-street",727599,San Marcos High School,CA,1203 San Pablo Dr,SingleFamily,1977,92078,16673949
2.0,3,SAN MARCOS,2041,388,https://photos.zillowstatic.com/p_d/ISu0whhsqeqp7y0000000000.jpg,33.123908,-117.195845,8593,1,9,,776582,San Marcos High School,CA,1048 La Sombra Dr,SingleFamily,1981,92078,16674056
3.0,3,SAN MARCOS,2451,389,https://photos.zillowstatic.com/p_d/IS1j79v0ny8csc0000000000.jpg,33.122036,-117.196162,10890,1,6,Garage - Attached,833335,San Marcos High School,CA,1111 Jugador Ct,SingleFamily,1989,92078,16674065
4.0,3,SAN MARCOS,3000,390,https://photos.zillowstatic.com/p_d/ISadweisuna0u70000000000.jpg,33.120928,-117.19572,12084,1,13,Garage - Attached,893710,San Marcos High School,CA,1152 Jugador Ct,SingleFamily,1984,92078,16674072
3.0,3,SAN MARCOS,2236,391,https://photos.zillowstatic.com/p_d/IS2rps4i8w9p2t1000000000.jpg,33.12234,-117.191334,18092,1,11,Garage - Attached,784738,San Marcos High School,CA,1075 Cima Dr,SingleFamily,1979,92078,16674187
3.0,3,San Marcos,2216,392,https://photos.zillowstatic.com/p_d/ISme9b90xlpd5k0000000000.jpg,33.11828,-117.193201,20909,1,9,"Garage - Attached, Off-street",851058,San Marcos High School,CA,1271 Las Vistillas Ln,SingleFamily,1989,92078,16675007
3.0,3,La Jolla,3379,393,https://photos.zillowstatic.com/p_d/ISqpccqeyfujcf0000000000.jpg,32.851909,-117.24294,39640,3,10,,2667931,La Jolla High School,CA,7799 Starlight Dr,SingleFamily,1978,92037,16839752
4.0,5,La Jolla,2820,394,https://photos.zillowstatic.com/p_d/IS2rdbjkiqelwb1000000000.jpg,32.847271,-117.258351,10018,,,,2207638,La Jolla High School,CA,2005 Soledad Ave,SingleFamily,1940,92037,16851267
2.0,3,LA JOLLA,2958,395,https://photos.zillowstatic.com/p_d/ISu0wxxzflchin0000000000.jpg,32.862791,-117.25272,10890,,9,Carport,2737160,La Jolla High School,CA,8553 La Jolla Shores Dr,SingleFamily,1959,92037,16838533
3.0,5,LA JOLLA,2573,396,https://photos.zillowstatic.com/p_d/ISq90wsid31dul1000000000.jpg,32.859929,-117.251922,24393,1,,Garage - Attached,3580111,La Jolla High School,CA,2360 Calle Del Oro,SingleFamily,1955,92037,16838544
3.0,5,LA JOLLA,3870,397,https://photos.zillowstatic.com/p_d/IS2znsdmdex0qv1000000000.jpg,32.859955,-117.247115,20037,2,12,Garage - Attached,2536272,La Jolla High School,CA,8433 Prestwick Dr,SingleFamily,1970,92037,16838563
5.0,4,LA JOLLA,4690,398,,32.854402,-117.251232,21780,1,,Garage - Attached,3872766,La Jolla High School,CA,2416 Avenida De La Playa,SingleFamily,1966,92037,16838948
4.0,5,LA JOLLA,3814,399,https://photos.zillowstatic.com/p_d/ISybrwzuzxv3wu0000000000.jpg,32.853327,-117.253028,24393,1,,Garage - Detached,3807190,La Jolla High School,CA,2315 Avenida De La Playa,SingleFamily,1965,92037,16839052
3.0,4,LA JOLLA,2452,400,https://photos.zillowstatic.com/p_d/ISuk3tqjgbp6350000000000.jpg,32.84886,-117.254723,10890,1,9,Garage - Attached,2478848,La Jolla High School,CA,7780 Roseland Dr,SingleFamily,1950,92037,16839282
4.0,4,LA JOLLA,3634,401,https://photos.zillowstatic.com/p_d/ISyjpgcb8mhcxl0000000000.jpg,32.848315,-117.25459,19166,1,,Garage - Detached,2751199,La Jolla High School,CA,11 E Roseland Dr,SingleFamily,1955,92037,16839408
6.0,4,LA JOLLA,3900,402,https://photos.zillowstatic.com/p_d/ISyfqivurzfq0c1000000000.jpg,32.845156,-117.246852,54885,1,,,4150536,La Jolla High School,CA,2810 Hidden Valley Rd,SingleFamily,1955,92037,16839671
5.5,5,LA JOLLA,4518,403,https://photos.zillowstatic.com/p_d/IS2f8f5chjq1dr1000000000.jpg,32.846308,-117.250037,43560,,,Garage - Attached,4145374,La Jolla High School,CA,2695 Hidden Valley Rd,SingleFamily,2018,92037,16839697
3.0,3,LA JOLLA,3044,404,https://photos.zillowstatic.com/p_d/IS62dtuekqds8q1000000000.jpg,32.84968,-117.245655,20126,2,12,"Carport, Off-street",1881148,La Jolla High School,CA,7834 Esterel Dr,SingleFamily,1965,92037,16839723
5.0,5,LA JOLLA,6242,405,https://photos.zillowstatic.com/p_d/ISybvjk1uryuvs1000000000.jpg,32.850805,-117.24263,23958,,,Garage - Attached,4327476,La Jolla High School,CA,7777 Starlight Dr,SingleFamily,1987,92037,16839762
3.0,5,LA JOLLA,2552,406,https://photos.zillowstatic.com/p_d/IS1jbkeqhue5yo1000000000.jpg,32.863329,-117.24427,13329,1,,,1835796,La Jolla High School,CA,2883 Inverness Dr,SingleFamily,1968,92037,16839793
3.0,4,LA JOLLA,2522,407,https://photos.zillowstatic.com/p_d/IS2bp1z5xwf6zi1000000000.jpg,32.861417,-117.24629,10318,1,12,Garage - Attached,1834448,La Jolla High School,CA,2732 Inverness Dr,SingleFamily,1968,92037,16839832
2.5,4,LA JOLLA,2612,408,,32.860796,-117.241839,10890,1,,,1686132,La Jolla High School,CA,2835 Cliffridge Ct,SingleFamily,1971,92037,16839908
3.0,4,LA JOLLA,2784,409,https://photos.zillowstatic.com/p_d/IS-1m92oxs5wq7od.jpg,32.861826,-117.238661,10200,1,9,Garage - Attached,1950918,La Jolla High School,CA,3036 Cranbrook Ct,SingleFamily,1961,92037,16840172
3.0,4,LA JOLLA,3012,410,https://photos.zillowstatic.com/p_d/ISifjolgxo3esa1000000000.jpg,32.847118,-117.267852,10890,2,,Garage - Attached,2233336,La Jolla High School,CA,1466 Torrey Pines Rd,SingleFamily,1953,92037,16848192
3.0,3,LA JOLLA,2152,411,,32.846034,-117.265496,14540,2,,Garage - Attached,3056980,La Jolla High School,CA,7709 Prospect Pl,SingleFamily,1952,92037,16848223
3.0,4,LAKESIDE,1749,412,https://photos.zillowstatic.com/p_d/ISyrbny43zpr6x1000000000.jpg,32.836644,-116.912162,10890,,,,558302,River Valley Charter School,CA,8864 Cambridge Ct,SingleFamily,1987,92040,16898801
3.0,4,LAKESIDE,2284,413,https://photos.zillowstatic.com/p_d/ISyv2f1wen40ee0000000000.jpg,32.835467,-116.922652,21780,2,,,582614,River Valley Charter School,CA,8733 Bridannela Trl,SingleFamily,2000,92040,16897630
3.0,4,LAKESIDE,2284,414,https://photos.zillowstatic.com/p_d/IS6yha0x2t2ddy0000000000.jpg,32.835841,-116.923024,21780,2,,,583449,River Valley Charter School,CA,8755 Bridannela Trl,SingleFamily,2000,92040,16897631
2.0,4,LAKESIDE,2120,415,https://photos.zillowstatic.com/p_d/ISyvynx7zax4v41000000000.jpg,32.835284,-116.923312,54450,2,18,"Carport, Garage - Attached, Off-street",567886,River Valley Charter School,CA,8752 Sky Rim Dr,SingleFamily,1990,92040,16897633
2.0,3,LAKESIDE,1894,416,https://photos.zillowstatic.com/p_d/IS6uqyl7tx7mj20000000000.jpg,32.835608,-116.906069,10890,3,7,"Carport, Off-street",547827,River Valley Charter School,CA,8721 Los Coches Rd,SingleFamily,1972,92040,16897903
2.0,5,LAKESIDE,2070,417,https://photos.zillowstatic.com/p_d/ISyjp82edxzvst1000000000.jpg,32.833686,-116.908648,10890,2,10,Garage - Attached,572742,River Valley Charter School,CA,13221 Vanguard Way,SingleFamily,1960,92040,16897951
2.0,3,LAKESIDE,1211,418,https://photos.zillowstatic.com/p_d/ISalua8746rnjb0000000000.jpg,32.834032,-116.910286,10890,1,6,Garage - Attached,466152,River Valley Charter School,CA,13201 Lamplite Ln,SingleFamily,1961,92040,16898002
2.0,3,LAKESIDE,1321,419,https://photos.zillowstatic.com/p_d/ISax3qbfixm0y51000000000.jpg,32.833334,-116.911787,7501,1,5,Garage - Attached,480904,River Valley Charter School,CA,13124 Lamplite Ln,SingleFamily,2002,92040,16898011
3.0,4,LAKESIDE,2649,420,,32.837066,-116.927552,10890,,,Garage - Attached,619827,River Valley Charter School,CA,12025 Thistle Braes Ter,SingleFamily,1960,92040,16898174
2.0,3,LAKESIDE,2169,421,https://photos.zillowstatic.com/p_d/ISyj9gpwz4jvq80000000000.jpg,32.836533,-116.927703,16315,1,6,,521104,River Valley Charter School,CA,12198 Gay Rio Dr,SingleFamily,1957,92040,16898180
3.0,3,LAKESIDE,2978,422,https://photos.zillowstatic.com/p_d/ISpt3sv3h4kzio0000000000.jpg,32.835493,-116.924305,33106,2,,,664555,River Valley Charter School,CA,12110 Gay Rio Way,SingleFamily,1985,92040,16898260
2.0,3,LAKESIDE,1428,423,,32.834204,-116.90693,20908,1,,,433309,River Valley Charter School,CA,8710 Los Coches Rd,SingleFamily,1930,92040,16898311
3.0,4,LAKESIDE,2012,424,https://photos.zillowstatic.com/p_d/ISqlpfqpvw9tg50000000000.jpg,32.83636,-116.918554,10890,2,7,,564504,River Valley Charter School,CA,8759 Via Diego Ter,SingleFamily,1979,92040,16898653
2.0,3,LAKESIDE,1741,425,https://photos.zillowstatic.com/p_d/ISy35mimtw0tao0000000000.jpg,32.837051,-116.917964,10890,1,7,"Garage - Attached, Off-street, On-street",553688,River Valley Charter School,CA,8785 Via Diego Ter,SingleFamily,1979,92040,16898657
2.0,4,LAKESIDE,1730,426,https://photos.zillowstatic.com/p_d/ISmu5v2bsfqpht1000000000.jpg,32.837069,-116.917338,10890,,,,520338,River Valley Charter School,CA,12502 Via Diego,SingleFamily,1979,92040,16898721
2.0,3,LAKESIDE,1395,427,https://photos.zillowstatic.com/p_d/ISyr788btn3opi0000000000.jpg,32.834131,-116.911552,10890,,,,507475,River Valley Charter School,CA,13161 Wellington Hill Dr,SingleFamily,1986,92040,16898776
2.5,3,LAKESIDE,1749,428,https://photos.zillowstatic.com/p_d/ISe0pjcr6dry1h1000000000.jpg,32.836869,-116.910766,10890,,,,550048,River Valley Charter School,CA,13339 Wellington Hill Dr,SingleFamily,1987,92040,16898819
3.0,3,LAKESIDE,1837,429,https://photos.zillowstatic.com/p_d/ISme1xcv98p8ux1000000000.jpg,32.832558,-116.910197,,,6,,546486,River Valley Charter School,CA,13326 Cuyamaca Vista Dr,SingleFamily,2016,92040,125982276
3.0,4,LAKESIDE,1748,430,https://photos.zillowstatic.com/p_d/ISucheir1219aq0000000000.jpg,32.831747,-116.909488,7501,2,,Garage - Attached,493302,River Valley Charter School,CA,13223 Midnight Star Way,Townhouse,2016,92040,125983170
2.5,3,CHULA VISTA,1607,431,https://photos.zillowstatic.com/p_d/ISustmtoqojc5b0000000000.jpg,32.644342,-116.955726,3998,,,,546453,Eastlake High School,CA,1115 Calle Tesoro,SingleFamily,1998,91915,17146440
3.0,4,CHULA VISTA,2740,432,https://photos.zillowstatic.com/p_d/IS5um7adnojhvx0000000000.jpg,32.639028,-116.956249,7501,2,4,Garage - Attached,666923,Eastlake High School,CA,1236 Indian Creek Dr,SingleFamily,1998,91915,17185863
4.0,5,CHULA VISTA,3466,433,https://photos.zillowstatic.com/p_d/ISijaoyorjagqh1000000000.jpg,32.633893,-116.953733,10890,,,,833387,Eastlake High School,CA,2451 Riviera Dr,SingleFamily,1998,91915,17186244
3.0,4,CHULA VISTA,2578,434,https://photos.zillowstatic.com/p_d/ISukbr2y8wrnyq0000000000.jpg,32.633803,-116.955881,7501,,,,668853,Eastlake High School,CA,1311 Silverado Dr,SingleFamily,1999,91915,17186273
2.5,3,CHULA VISTA,1448,435,https://photos.zillowstatic.com/p_d/ISmycrredh1hr91000000000.jpg,32.630589,-116.951948,3920,2,,Garage - Attached,535813,Eastlake High School,CA,1500 Ashford Castle Dr,SingleFamily,2000,91915,17186556
2.5,3,CHULA VISTA,1304,436,https://photos.zillowstatic.com/p_d/ISynw4bl6djl370000000000.jpg,32.630223,-116.953258,3998,2,,,519560,Eastlake High School,CA,1467 Ashford Castle Dr,SingleFamily,2000,91915,17186594
2.5,3,CHULA VISTA,2178,437,https://photos.zillowstatic.com/p_d/ISe0xdhhwi73pk1000000000.jpg,32.637136,-116.954783,5254,,,"Off-street, On-street",625230,Eastlake High School,CA,1296 Indian Creek Dr,SingleFamily,2000,91915,17186599
2.5,3,CHULA VISTA,2383,438,https://photos.zillowstatic.com/p_d/IS2bxjq1tizbx50000000000.jpg,32.63691,-116.954559,5167,2,,,648992,Eastlake High School,CA,1304 Indian Creek Dr,SingleFamily,2000,91915,17186601
3.0,3,CHULA VISTA,1793,439,https://photos.zillowstatic.com/p_d/ISu8auqdg36jwc1000000000.jpg,32.637402,-116.951923,4178,2,6,Garage - Attached,581019,Eastlake High School,CA,1332 Thunder Spring Dr,SingleFamily,2000,91915,21698602
2.5,3,Chula Vista,1740,440,https://photos.zillowstatic.com/p_d/ISyf2smb2w9ju91000000000.jpg,32.634605,-116.937135,3998,,,,543688,Eastlake High School,CA,2844 Bear Valley Rd,SingleFamily,2004,91915,64453727
2.5,4,Chula Vista,2392,441,https://photos.zillowstatic.com/p_d/IS9dc3ke18zjx21000000000.jpg,32.640286,-116.95141,7501,,,,630678,Eastlake High School,CA,2566 Noble Canyon Rd,SingleFamily,2001,91915,52523525
3.0,3,CHULA VISTA,1918,442,https://photos.zillowstatic.com/p_d/ISq9wsfngfvmeg1000000000.jpg,32.640501,-116.952167,7501,2,,"Garage - Attached, Off-street",595820,Eastlake High School,CA,2554 Noble Canyon Rd,SingleFamily,2000,91915,48181470
2.5,4,CHULA VISTA,2392,443,https://photos.zillowstatic.com/p_d/ISekoojmy5a1qg1000000000.jpg,32.640991,-116.953194,7501,2,,,630859,Eastlake High School,CA,2571 Walking Stick Ct,SingleFamily,2001,91915,49942282
2.5,4,CHULA VISTA,1793,444,https://photos.zillowstatic.com/p_d/IShndpop1hfl310000000000.jpg,32.636951,-116.950553,4124,,,,586256,Eastlake High School,CA,1358 Silver Springs Dr,SingleFamily,2001,91915,49942294
3.0,3,CHULA VISTA,1563,445,https://photos.zillowstatic.com/p_d/ISma6em8j73g3r1000000000.jpg,32.636397,-116.950444,3998,2,,,556967,Eastlake High School,CA,2536 Flinn Springs Rd,SingleFamily,2001,91915,50205163
3.0,3,CHULA VISTA,1563,446,https://photos.zillowstatic.com/p_d/ISivny4zmwdtl30000000000.jpg,32.636454,-116.950962,7501,2,8,"Garage - Attached, Off-street",561186,Eastlake High School,CA,1364 Thunder Spring Dr,SingleFamily,2001,91915,50205166
2.5,4,CHULA VISTA,2158,447,https://photos.zillowstatic.com/p_d/IS6yhia6b40r6f1000000000.jpg,32.640904,-116.952026,7501,2,,Garage - Attached,623425,Eastlake High School,CA,2549 Noble Canyon Rd,SingleFamily,2002,91915,51081437
3.0,3,CHULA VISTA,2356,448,https://photos.zillowstatic.com/p_d/ISuoekajo8bqvi0000000000.jpg,32.637334,-116.948991,7501,2,7,Garage - Attached,623223,Eastlake High School,CA,1359 Granite Springs Dr,SingleFamily,2001,91915,51081513
3.0,4,CHULA VISTA,2356,449,https://photos.zillowstatic.com/p_d/ISyvu0h8t9tzsh0000000000.jpg,32.636705,-116.949655,7501,2,8,Garage - Attached,632115,Eastlake High School,CA,1375 Silver Springs Dr,SingleFamily,2002,91915,51081553
3.0,4,CHULA VISTA,2564,450,https://photos.zillowstatic.com/p_d/ISax7pxmjifk730000000000.jpg,32.63456,-116.948298,7501,2,7,"Garage - Attached, Off-street",687816,Eastlake High School,CA,2568 Green Valley Rd,SingleFamily,2002,91915,51081591
